Timestamp (seconds),Speed (km/h),Latitude coordinate (degrees),Longitude coordinate (degrees),Altitude (meters),Vertical accuracy (degrees),Horizontal accuracy (degrees),Course (degrees),Difcourse: course variation (degrees),Boolean of system activated (1 if >50km/h),Acceleration in X (Gs),Acceleration in Y (Gs),Acceleration in Z (Gs),Acceleration in X filtered by KF (Gs),Acceleration in Y filtered by KF (Gs),Acceleration in Z filtered by KF (Gs),Roll (degrees),Pitch (degrees),Yaw (degrees),X: car position relative to lane center (meters),Phi: car angle relative to lane curvature (degrees),W: road width (meters),"State of the lane det. algorithm [-1=calibrating, 0=initializing, 1=undetected, 2=detected/running]",Distance to ahead vehicle in current lane (meters) [value -1 means no car is detected in front],Time of impact to ahead vehicle (seconds) [distance related to own speed],Number of detected vehicles in this frame (traffic),GPS speed (km/h) [same as in RAW GPS],Maximum allowed speed of current road (km/h),"Reliability of obtained maxspeed (0=unknown, 1=reliable, 2=used previously obtained maxspeed,3=estimated by type of road)","Type of road (1, trunk, secondary...)",Number of lanes in current road,"Estimated current lane (1=right lane, 2=first left lane, 3=second left lane, etc) [experimental]",GPS Latitude used to query OSM (degrees),GPS Longitude used to query OSM (degrees),OSM delay to answer query (seconds),GPS speed (km/h) [same as in RAW GPS]],Behavior
12.9,78.8,40.506252,-3.355367,636.5,16,30,272.5,87.539,1,-0.089,-0.041,-0.065,0.017,-0.001,-0.029,-1.678,-0.014,-0.896,0,0,3.5,-1,-1,-1,0,78.8,120,1,1,3,1,40.505798,-3.355895,1.52,85.7,0
13.93,82.7,40.505802,-3.355622,605.9,4,5,273.9,1.406,1,-0.04,-0.016,-0.094,-0.013,-0.012,-0.064,-1.658,-0.002,-0.911,0,0,3.5,-1,-1,-1,0,82.7,120,1,1,3,1,40.505798,-3.355895,1.52,85.7,0
14.89,85.5,40.505798,-3.355894,606.3,6,5,274.6,2.109,1,0.028,-0.06,-0.088,0.029,-0.046,-0.085,-1.623,0.007,-0.908,0.294,0.034,3.219,2,-1,-1,0,85.5,120,1,1,3,1,40.505798,-3.355895,1.52,85.7,0
15.88,85.7,40.50581,-3.356182,606.9,6,5,274.9,1.055,1,-0.048,0,-0.02,-0.046,-0.018,-0.043,-1.574,0.014,-0.903,-0.2,-0.03,3.027,2,-1,-1,0,85.7,120,1,1,3,1,40.505798,-3.355895,1.52,85.7,0
16.88,85.5,40.505817,-3.356466,606.4,6,5,274.9,0.352,1,0.068,-0.005,-0.019,0.051,0.019,-0.011,-1.563,0.021,-0.889,-0.732,-0.048,3.238,2,-1,-1,0,85.5,120,1,1,3,1,40.505798,-3.355895,1.52,85.7,0
17.88,85.6,40.505829,-3.356743,606,6,5,274.6,0.352,1,-0.008,0.014,0.002,0.008,0.023,-0.012,-1.541,0.005,-0.889,-1.534,-0.018,3.447,2,-1,-1,0,85.6,90,1,1,2,-1,40.505817,-3.356466,1.23,85.6,0
18.91,85.2,40.505844,-3.357017,605.4,6,5,274.9,0.352,1,-0.042,-0.045,0.015,-0.043,-0.029,0.013,-1.553,0.001,-0.89,0.916,0.263,3.307,2,-1,-1,1,85.2,90,1,1,2,-1,40.505817,-3.356466,1.23,85.6,0
19.89,86,40.505863,-3.357301,604.9,6,5,275.3,0.703,1,-0.024,-0.033,0.006,-0.022,-0.002,0.011,-1.56,0.01,-0.887,0.833,0,3.277,2,-1,-1,1,86,90,1,1,2,-1,40.505844,-3.357018,1.778,86,0
20.87,87.2,40.505878,-3.357584,604.5,4,5,275.6,0.703,1,0.022,-0.002,-0.007,-0.014,0.003,-0.024,-1.555,0.002,-0.884,0.701,-0.006,3.208,2,10.61,0.44,1,87.2,90,1,1,2,-1,40.505844,-3.357018,1.778,86,0
21.89,87,40.505898,-3.357868,604.1,4,5,276,0.703,1,0.042,0.001,-0.031,0.014,-0.007,-0.004,-1.542,0.003,-0.885,0.523,0.075,3.255,2,12.77,0.53,1,87,120,1,1,4,-1,40.505878,-3.357584,1.326,87,0
22.89,86.8,40.50592,-3.358151,603.7,4,5,276.3,0.703,1,-0.011,-0.014,0.007,-0.028,-0.009,-0.001,-1.532,-0.003,-0.88,0.459,-0.018,3.389,2,15.02,0.62,1,86.8,120,1,1,4,-1,40.505878,-3.357584,1.326,87,0
23.89,86.6,40.505939,-3.358435,603.7,4,5,276.3,0.352,1,0,0.023,-0.017,-0.014,0,-0.003,-1.538,0.015,-0.865,0.453,-0.041,3.256,1,15.86,0.66,1,86.8,120,1,1,4,-1,40.50592,-3.358151,1.688,86.6,0
24.89,86.4,40.505959,-3.358722,603.9,4,5,275.6,0.703,1,-0.046,-0.013,-0.003,-0.046,-0.013,-0.019,-1.526,0.008,-0.852,0.139,-0.068,3.659,2,17.27,0.72,2,86.4,120,1,1,4,-1,40.50592,-3.358151,1.688,86.6,0
25.9,84.9,40.505974,-3.358997,603.3,4,5,274.9,1.406,1,0.015,-0.017,0.007,-0.002,-0.02,0.025,-1.537,0.012,-0.83,0.45,0.041,3.227,2,17.71,0.75,2,84.9,120,1,1,3,-1,40.505959,-3.358723,2.142,84,0
26.87,84,40.505985,-3.359269,603.7,4,5,273.5,2.109,1,-0.025,-0.018,-0.002,-0.014,-0.024,-0.003,-1.543,0.041,-0.798,0.46,0.028,3.318,1,17.63,0.76,2,84,120,1,1,3,-1,40.505959,-3.358723,2.142,84,0
27.89,85,40.505993,-3.359544,603.2,4,5,272.8,2.109,1,0.03,-0.005,-0.008,0.002,-0.039,-0.015,-1.536,0.069,-0.761,0.521,0.011,3.165,2,17.88,0.76,2,85,120,1,1,3,-1,40.505959,-3.358723,2.142,84,0
28.89,84.1,40.505997,-3.359816,603,4,5,270.7,2.812,1,0.022,-0.007,0.024,-0.026,0.01,0.012,-1.533,0.068,-0.73,0.44,-0.025,3.285,2,18.65,0.8,3,84.1,120,1,1,3,-1,40.505993,-3.359544,1.914,84.1,0
29.95,83.9,40.505997,-3.360087,603.7,4,5,269.3,3.516,1,-0.029,0.009,0.002,-0.032,0.021,0.015,-1.547,0.04,-0.717,0.351,0.023,3.352,2,19.35,0.83,3,83.9,120,1,1,3,-1,40.505993,-3.359544,1.914,84.1,0
30.9,84.4,40.505997,-3.360363,602.5,4,5,268.2,2.461,1,0.005,-0.034,0.06,-0.016,-0.016,0.037,-1.563,0.042,-0.685,0.16,0.007,3.207,2,20.2,0.86,3,84.4,120,1,1,3,-1,40.505993,-3.359544,1.914,84.1,0
31.9,84.1,40.505985,-3.360638,601.7,4,5,266.5,2.812,1,-0.016,-0.017,0.057,-0.014,-0.026,0.054,-1.606,0.068,-0.639,-0.121,-0.032,3.175,2,20.9,0.89,3,84.1,120,1,1,3,0,40.505997,-3.360088,3.996,86.2,0
32.9,86.2,40.505955,-3.360917,602.4,4,5,263.7,4.57,1,0.013,0.011,0.038,0.029,-0.002,0.027,-1.63,0.067,-0.593,-0.903,-0.045,3.167,2,20.08,0.86,2,84.1,120,1,1,3,0,40.505997,-3.360088,3.996,86.2,0
33.93,88.9,40.505928,-3.3612,603.7,4,5,262.3,4.219,1,-0.004,0.047,0.012,-0.015,0.077,0.011,-1.642,0.039,-0.575,0,0,3.436,0,-1,-1,2,88.9,120,1,1,3,0,40.505997,-3.360088,3.996,86.2,0
34.91,91.6,40.505894,-3.361497,604.8,4,5,261.9,1.758,1,0,0.003,-0.018,-0.002,0.01,-0.005,-1.632,0.005,-0.565,0,0,3.437,0,-1,-1,2,91.6,120,1,1,3,0,40.505928,-3.3612,1.218,91.6,0
35.87,93.8,40.505852,-3.3618,605.1,4,5,260.5,1.758,1,0.006,0.008,-0.004,-0.002,0,-0.013,-1.619,0.009,-0.545,0.339,0.009,3.249,2,15.77,0.62,2,91.6,120,1,1,3,0,40.505928,-3.3612,1.218,91.6,0
36.9,95.3,40.505806,-3.362112,605.5,4,5,259.5,2.461,1,-0.003,-0.027,0,-0.001,-0.032,-0.016,-1.605,-0.01,-0.531,0.091,-0.045,3.217,2,17.38,0.66,2,95.3,120,1,1,3,0,40.505852,-3.3618,0.858,93.8,0
37.92,96.1,40.505756,-3.362425,605.6,4,5,258.4,2.109,1,0.019,-0.02,-0.022,0.011,-0.033,0.001,-1.593,-0.004,-0.507,-0.11,0.036,3.168,2,19.91,0.75,2,96.1,120,1,1,3,0,40.505806,-3.362112,1.902,96.1,0
38.87,96.9,40.505699,-3.362735,606.2,4,5,257,2.461,1,-0.008,0.026,0.019,-0.006,0.02,0,-1.589,-0.001,-0.495,-0.251,0.068,3.071,2,22.8,0.85,2,96.1,120,1,1,3,0,40.505806,-3.362112,1.902,96.1,0
39.9,98,40.50563,-3.36304,607.1,4,5,255.6,2.812,1,-0.004,-0.009,0.03,-0.006,-0.009,0.01,-1.592,0.017,-0.47,-0.161,0.122,3.261,2,22.81,0.84,1,98,120,1,1,3,0,40.505806,-3.362112,1.902,96.1,0
40.93,98.8,40.505554,-3.363353,606.9,4,5,253.8,3.164,1,-0.004,0.001,0.013,-0.009,-0.001,0.016,-1.604,0.018,-0.452,-0.417,0.018,3.297,2,22.55,0.82,1,98.8,120,1,1,3,0,40.505699,-3.362735,3.796,100.7,0
41.9,100.7,40.50547,-3.363674,607.6,4,5,252.1,3.516,1,0.005,0.057,0.015,-0.011,0.032,0.001,-1.613,0.015,-0.436,-0.331,0.046,3.129,2,23.21,0.83,1,100.7,120,1,1,3,0,40.505699,-3.362735,3.796,100.7,0
42.9,102.5,40.505383,-3.364004,607.9,4,5,250.7,3.164,1,-0.019,-0.014,-0.015,-0.014,-0.011,-0.012,-1.61,0.017,-0.427,-0.299,0.089,3.169,2,24.02,0.84,1,102.5,120,1,1,3,0,40.505699,-3.362735,3.796,100.7,0
43.87,104,40.505291,-3.364334,608.3,4,5,249.3,2.812,1,-0.016,0.011,-0.038,0.012,0.002,-0.027,-1.599,0.025,-0.411,-0.27,0.113,3.257,2,24.76,0.86,1,104,120,1,1,3,0,40.505699,-3.362735,3.796,100.7,0
44.91,105,40.505184,-3.36466,607.8,4,5,247.5,3.164,1,0.001,-0.006,-0.026,0.016,-0.001,-0.034,-1.564,0.027,-0.396,-0.42,0.082,3.394,2,24.51,0.84,1,105,120,1,1,3,0,40.505383,-3.364004,2.913,105,0
45.87,104.6,40.505077,-3.364972,608.1,4,5,245.7,3.516,1,-0.035,0.017,0.004,-0.042,-0.008,0.003,-1.549,0.019,-0.386,-0.281,0.073,3.429,2,23.21,0.8,1,105,120,1,1,3,0,40.505383,-3.364004,2.913,105,0
46.87,104.2,40.504963,-3.365273,608.6,4,5,244,3.516,1,0.012,-0.011,0.023,-0.012,-0.012,0.022,-1.564,0.025,-0.377,-0.219,0.123,3.245,2,22.78,0.79,1,104.2,120,1,1,3,0,40.505077,-3.364972,1.32,104.2,0
47.89,105.3,40.504837,-3.365581,609.6,4,5,242.2,3.516,1,0.009,-0.01,-0.003,-0.027,-0.027,0.008,-1.579,0.037,-0.36,-0.261,0.094,3.211,2,24.44,0.84,2,104.2,120,1,1,3,0,40.505077,-3.364972,1.32,104.2,0
48.88,106.5,40.504715,-3.365886,611,4,5,240.5,3.516,1,-0.003,0.028,-0.009,-0.006,0.029,-0.01,-1.563,0.034,-0.355,-0.341,0.074,3.19,2,23.07,0.78,2,106.5,120,1,1,3,0,40.504837,-3.365581,2.065,107,0
49.87,107,40.504578,-3.366187,610.6,4,5,239.4,2.812,1,0.011,0.017,0.007,0.002,0.023,0.003,-1.548,0.044,-0.359,-0.169,0.114,3.127,2,24.26,0.82,2,107,120,1,1,3,0,40.504837,-3.365581,2.065,107,0
50.88,107,40.504436,-3.366474,610.4,4,5,238.4,2.109,1,0.043,0.047,-0.031,0.005,0.038,-0.018,-1.529,0.052,-0.363,-0.222,0.121,3.35,2,23.92,0.81,2,107,120,1,1,3,0,40.504837,-3.365581,2.065,107,0
51.87,106.3,40.504295,-3.366757,609,4,5,237.7,1.758,1,-0.011,-0.084,0.012,0.007,-0.041,0.019,-1.533,0.055,-0.377,-0.179,0.115,3.308,2,19.89,0.67,2,106.3,120,1,1,3,0,40.504436,-3.366474,1.041,106.3,0
52.87,106.6,40.504143,-3.367037,606.6,4,5,237,1.406,1,0.014,0.015,0.015,-0.012,0.024,0.027,-1.557,0.091,-0.365,-0.474,-0.019,3.095,2,16.44,0.56,2,106.6,120,1,1,3,0,40.504436,-3.366474,1.041,106.3,0
53.87,108.2,40.503979,-3.367324,606.3,4,5,235.5,2.109,1,-0.004,0.055,0.008,-0.013,0.039,0.02,-1.575,0.05,-0.377,-1.127,-0.076,3.177,1,14.5,0.48,2,108.2,120,1,1,3,0,40.504436,-3.366474,1.041,106.3,0
54.87,110.1,40.503819,-3.36762,607,4,5,235.2,1.758,1,0.057,0.048,-0.005,0.016,0.035,0.008,-1.586,0.014,-0.405,0,0,3.36,0,-1,-1,1,108.2,120,1,1,3,0,40.504436,-3.366474,1.041,106.3,0
55.87,112,40.503654,-3.36792,607.9,4,5,235.9,0.703,1,-0.104,-0.004,-0.031,-0.028,0.019,-0.027,-1.58,-0.009,-0.435,0.27,0.03,3.077,2,-1,-1,1,110.1,120,1,1,3,0,40.504436,-3.366474,1.041,106.3,0
56.88,112,40.503498,-3.36822,608.3,4,5,235.9,0.703,1,-0.023,-0.048,-0.022,0.075,-0.027,-0.015,-1.572,-0.015,-0.459,0,0.024,3.117,2,-1,-1,0,112,120,1,1,3,1,40.504143,-3.367038,7.415,115.8,0
57.9,114.5,40.503342,-3.368517,608.8,4,5,237.5,1.607,1,-0.057,-0.037,-0.005,-0.059,-0.03,-0.017,-1.574,-0.019,-0.48,-0.16,0.07,3.311,2,-1,-1,0,114.5,120,1,1,3,1,40.504143,-3.367038,7.415,115.8,0
58.9,115.3,40.503181,-3.368821,609.2,4,5,237.5,1.607,1,-0.031,0.005,-0.004,-0.033,0.015,-0.015,-1.577,-0.005,-0.496,-0.18,0.071,3.206,2,-1,-1,0,115.3,120,1,1,3,1,40.504143,-3.367038,7.415,115.8,0
59.88,115.8,40.503017,-3.369144,610.4,4,5,237.5,0,1,0.002,-0.002,-0.002,0.001,-0.003,-0.005,-1.568,-0.003,-0.513,-0.199,0.054,3.18,2,-1,-1,0,115.8,120,1,1,3,1,40.504143,-3.367038,7.415,115.8,0
60.87,116.7,40.502861,-3.36947,610.1,4,5,236.7,0.765,1,-0.061,0.016,-0.002,-0.019,0.01,-0.008,-1.565,-0.006,-0.53,-0.19,0.027,3.245,2,-1,-1,0,115.8,120,1,1,3,1,40.504143,-3.367038,7.415,115.8,0
61.88,116.9,40.502708,-3.369791,606.3,4,5,237,0.496,1,0.019,0.029,0.004,-0.004,0.019,0.002,-1.566,-0.009,-0.55,-0.11,0.087,3.216,2,-1,-1,0,116.9,120,1,1,3,1,40.502861,-3.369471,1.148,116.9,0
62.87,117.5,40.50256,-3.370119,605.5,4,5,237,0.27,1,0.007,0.002,0,0.024,0.012,-0.001,-1.565,-0.028,-0.576,0.394,0.146,3.191,1,-1,-1,0,117.5,120,1,1,3,1,40.502861,-3.369471,1.148,116.9,0
63.88,118,40.502411,-3.37046,606.3,4,5,238.7,1.701,1,-0.044,-0.033,-0.005,-0.027,-0.044,-0.004,-1.559,-0.008,-0.593,1.31,0.152,3.223,2,-1,-1,0,118,120,1,1,3,1,40.50256,-3.37012,2.661,118.5,0
64.88,118.5,40.502266,-3.370798,606,3,5,239.1,2.053,1,0.042,-0.019,-0.007,0,-0.008,-0.009,-1.558,0.004,-0.599,0,0,3.321,0,-1,-1,0,118.5,120,1,1,3,1,40.50256,-3.37012,2.661,118.5,0
65.9,119,40.502117,-3.371135,605.5,3,5,239.1,0.352,1,-0.044,-0.037,-0.009,-0.022,-0.031,-0.004,-1.556,0.051,-0.59,-0.349,0.063,3.452,2,-1,-1,0,119,120,1,1,3,1,40.50256,-3.37012,2.661,118.5,0
66.89,119.2,40.501953,-3.371472,604.9,3,5,238,1.055,1,0.013,0.01,-0.037,0.003,-0.014,-0.022,-1.54,0.048,-0.584,-0.04,0.109,3.468,2,199.96,6.04,1,119.2,120,1,1,3,1,40.502117,-3.371136,0.864,119,0
67.88,118.5,40.501789,-3.371799,604.4,3,5,237.7,1.406,1,-0.022,0.034,-0.001,-0.021,0.026,-0.017,-1.522,0.031,-0.586,-0.04,0.106,3.416,2,-1,-1,1,118.5,120,1,1,3,1,40.502117,-3.371136,0.864,119,0
68.89,117.5,40.501633,-3.372122,603.7,3,5,237.3,0.703,1,-0.027,0.029,0.013,-0.027,0.02,0.014,-1.525,0.037,-0.585,-0.01,0.041,3.498,2,-1,-1,2,117.5,120,1,1,3,1,40.501953,-3.371473,2.767,117.5,0
69.88,117.1,40.501469,-3.37244,603.9,3,5,237.3,0.352,1,-0.014,0.031,0.018,0.004,0.016,0.012,-1.532,0.02,-0.591,0.02,0.006,3.429,2,-1,-1,1,117.1,120,1,1,3,1,40.501953,-3.371473,2.767,117.5,0
70.9,116.8,40.501308,-3.372756,602.4,3,5,237.3,0,1,-0.005,0.001,-0.001,-0.023,0.01,-0.003,-1.536,0.012,-0.595,0,0.031,3.486,2,-1,-1,2,117.1,120,1,1,3,1,40.501469,-3.372441,0.85,117.1,0
71.88,116.4,40.501148,-3.373082,602.4,3,5,237.3,0,1,-0.033,-0.039,0.013,0.006,-0.015,0.002,-1.539,0.026,-0.596,0.091,0.073,3.39,2,-1,-1,1,116.4,120,1,1,3,1,40.501308,-3.372756,1.698,116.4,0
72.88,116.3,40.500992,-3.373397,601.6,3,5,237.3,0,1,-0.004,0.009,0.009,-0.006,0.026,0.008,-1.538,0.005,-0.602,-0.01,0.041,3.358,1,-1,-1,1,116.4,120,1,1,3,1,40.501308,-3.372756,1.698,116.4,0
73.96,116.2,40.500832,-3.373708,601.4,3,5,237.3,0,1,-0.011,-0.006,-0.004,-0.001,-0.01,0.005,-1.542,0.019,-0.602,-0.02,0.097,3.474,2,-1,-1,1,116.2,120,1,1,3,1,40.500992,-3.373398,2.169,116.6,0
74.89,116.6,40.50066,-3.374033,602.1,3,5,237.3,0,1,-0.022,0.002,0.019,-0.008,0.005,0.009,-1.542,0.026,-0.598,0.03,0.071,3.342,2,-1,-1,0,116.6,120,1,1,3,1,40.500992,-3.373398,2.169,116.6,0
75.88,117.2,40.500507,-3.374349,600.7,3,5,237.3,0,1,-0.003,-0.001,0.026,0.005,0.004,0.01,-1.55,0.014,-0.599,0,0.088,3.368,1,-1,-1,0,116.6,120,1,1,3,1,40.500992,-3.373398,2.169,116.6,0
76.9,116.7,40.500347,-3.374666,600.8,3,5,237,0.352,1,0.024,-0.005,-0.018,0.01,0.007,-0.018,-1.539,0.02,-0.596,-0.189,0.063,2.802,1,-1,-1,0,116.7,120,1,1,3,1,40.500507,-3.37435,1.509,116.7,0
77.88,116.2,40.500183,-3.374978,601.5,4,5,236.6,0.703,1,0.093,-0.003,-0.025,0.017,-0.012,-0.025,-1.522,0.026,-0.594,-0.268,0.059,2.842,2,-1,-1,1,116.7,120,1,1,3,1,40.500507,-3.37435,1.509,116.7,0
78.93,114.6,40.500023,-3.375287,602.2,4,5,236.6,0.352,1,-0.049,0.017,0.008,-0.028,0.027,0.006,-1.517,0.007,-0.596,0,0.137,3.274,2,-1,-1,1,114.6,120,1,1,3,1,40.500183,-3.374978,2.306,114.1,0
79.89,114.1,40.499866,-3.375598,598.2,4,5,237.3,0.703,1,-0.037,0.049,-0.013,-0.043,0.028,-0.008,-1.525,-0.016,-0.609,0.07,0.121,3.359,2,-1,-1,1,114.1,120,1,1,3,1,40.500183,-3.374978,2.306,114.1,0
80.89,112.9,40.499718,-3.375908,597.7,4,5,238.4,1.758,1,-0.089,-0.048,-0.002,-0.016,-0.033,0.008,-1.527,-0.027,-0.623,1.124,0.17,3.403,2,22.99,0.73,1,112.9,120,1,1,3,1,40.500183,-3.374978,2.306,114.1,0
81.88,113.3,40.499569,-3.376226,598,4,5,238,0.703,1,0.065,-0.009,0.001,0.03,-0.03,0,-1.531,0.007,-0.61,0,0,3.281,0,-1,-1,1,113.3,120,1,1,3,1,40.499718,-3.375909,1.458,113.3,0
82.89,113.3,40.49942,-3.376548,598.3,4,5,237.3,1.055,1,-0.076,-0.011,0.018,-0.062,-0.002,0.009,-1.532,0.029,-0.601,0,0,3.277,0,-1,-1,1,113.3,120,1,1,3,1,40.499718,-3.375909,1.458,113.3,0
83.88,113.2,40.499264,-3.376857,597.8,3,5,237,1.055,1,0.036,0.022,-0.013,0.012,0.023,-0.009,-1.531,0.043,-0.595,-0.353,0.02,3.381,2,-1,-1,1,113.2,120,1,1,3,1,40.499718,-3.375909,1.458,113.3,0
84.9,113,40.499107,-3.377169,597.4,3,5,236.6,0.703,1,0.078,0.031,0.002,0.012,0.021,-0.008,-1.534,0.039,-0.589,-0.279,0.065,3.477,2,-1,-1,1,113,120,1,1,3,1,40.499718,-3.375909,1.458,113.3,0
85.87,111.8,40.498951,-3.377475,597.3,3,5,236.6,0.352,1,-0.081,0,-0.026,0.005,0.038,-0.024,-1.523,0.038,-0.588,-0.169,0.099,3.428,2,-1,-1,1,113,120,1,1,3,1,40.499718,-3.375909,1.458,113.3,0
86.87,110.6,40.498802,-3.377782,596.7,3,5,236.6,0,1,0.002,-0.028,-0.021,0.026,0.01,0.001,-1.53,0.039,-0.59,0.05,0.046,3.329,2,88.73,2.86,1,111.8,120,1,1,3,1,40.49942,-3.376549,7.513,108.6,0
87.89,109.6,40.49865,-3.378084,595.8,3,5,236.6,0,1,-0.054,0.022,-0.016,-0.041,0.019,-0.015,-1.527,0.033,-0.591,0.02,0.102,3.7,1,98.4,3.23,1,109.6,120,1,1,3,1,40.49942,-3.376549,7.513,108.6,0
88.91,109.4,40.498497,-3.378378,595.5,4,5,236.6,0,1,0.028,0.031,0.011,0.012,0.013,0.005,-1.522,0.036,-0.59,0.231,0.052,3.327,2,103.74,3.41,1,109.4,120,1,1,3,1,40.49942,-3.376549,7.513,108.6,0
89.89,108.6,40.498341,-3.378677,595.4,4,5,236.2,0.352,1,-0.03,-0.036,-0.011,-0.03,-0.013,0.01,-1.534,0.032,-0.589,0.32,0.001,3.366,2,102.97,3.41,1,108.6,120,1,1,3,1,40.49942,-3.376549,7.513,108.6,0
90.89,109.3,40.498184,-3.378973,594.7,4,5,236.2,0.352,1,-0.02,-0.019,0.011,-0.027,-0.019,0,-1.536,0.03,-0.588,0.35,0.018,3.352,2,101.72,3.37,1,108.6,120,1,1,3,1,40.49942,-3.376549,7.513,108.6,0
91.89,108.4,40.498035,-3.379266,594.6,4,5,235.9,0.352,1,0.033,0.001,-0.014,-0.005,-0.001,-0.014,-1.523,0.027,-0.587,0.27,-0.034,3.384,2,199.92,6.64,1,108.4,120,1,1,3,1,40.498184,-3.378973,1.379,108.4,0
92.89,107,40.497887,-3.379556,594.7,3,5,235.9,0.352,1,-0.014,-0.036,0.031,-0.01,-0.025,0.034,-1.533,0.029,-0.585,0.04,-0.018,3.357,1,196.51,6.61,1,107,120,1,1,3,1,40.498184,-3.378973,1.379,108.4,0
93.89,107.9,40.497738,-3.379848,595,3,5,235.5,0.352,1,0.018,-0.035,0.022,0.003,-0.032,0.029,-1.558,0.042,-0.574,-0.279,-0.048,3.369,2,155.43,5.19,1,107.9,120,1,1,3,1,40.497887,-3.379556,1.41,107.9,0
94.89,109,40.497585,-3.380155,593.6,3,5,234.5,1.406,1,0.043,0.014,0.018,0.002,-0.006,0.009,-1.573,0.057,-0.56,-1.152,-0.061,3.38,2,86.85,2.87,2,109,120,1,1,3,1,40.497887,-3.379556,1.41,107.9,0
95.92,109.7,40.497425,-3.380449,593.3,3,5,234.1,1.406,1,0.02,0.114,-0.006,-0.007,0.101,0.002,-1.585,0.018,-0.566,0,0,3.293,0,6.85,0.22,2,109.7,120,1,1,3,1,40.497887,-3.379556,1.41,107.9,0
96.96,112,40.497265,-3.380762,593.3,3,5,235.2,1.055,1,-0.044,0.004,-0.023,-0.045,0.011,-0.023,-1.574,-0.008,-0.588,0.629,0.017,3.283,2,9.47,0.3,1,112,120,1,1,3,1,40.497887,-3.379556,1.41,107.9,0
97.9,112.2,40.497093,-3.381074,593.2,3,5,235.5,1.406,1,-0.044,0.011,-0.027,-0.004,0.011,-0.017,-1.557,-0.011,-0.599,0.137,0.029,3.23,2,11.57,0.37,1,112,120,1,1,3,2,40.497585,-3.380156,5.148,112.8,0
98.9,112.1,40.496937,-3.381377,592.9,3,5,236.6,1.406,1,0.067,-0.009,-0.008,0.011,-0.002,-0.003,-1.554,-0.008,-0.61,0.152,-0.03,3.354,2,12.96,0.42,1,112.2,120,1,1,3,2,40.497585,-3.380156,5.148,112.8,0
99.88,112.8,40.496784,-3.381671,593.5,3,5,236.2,0.703,1,0,-0.013,-0.022,-0.034,-0.033,-0.008,-1.554,0.006,-0.607,0.171,0.01,3.326,2,14.85,0.47,1,112.8,120,1,1,3,2,40.497585,-3.380156,5.148,112.8,0
100.87,113,40.496628,-3.381976,596,3,5,236.6,0.352,1,-0.071,0.018,-0.01,-0.032,0.039,0.009,-1.567,-0.016,-0.625,0.259,0.045,3.4,2,16.72,0.53,1,112.8,120,1,1,3,2,40.496628,-3.381976,0.605,113,0
101.9,113.4,40.496475,-3.382278,592.5,3,5,237.7,1.406,1,0.01,0.046,-0.003,-0.004,0,0.002,-1.569,-0.022,-0.64,1.148,0.123,3.428,2,18.39,0.59,1,113,120,1,1,3,2,40.496628,-3.381976,0.605,113,0
102.87,114.5,40.496323,-3.382595,593,4,5,237.7,1.055,1,-0.069,-0.046,-0.013,-0.013,-0.048,-0.002,-1.565,0.018,-0.633,0,0,3.299,0,-1,-1,1,113.4,120,1,1,3,1,40.496475,-3.382278,1.013,114.5,0
103.87,114.8,40.496166,-3.382903,593.7,3,5,236.6,1.055,1,0.038,-0.052,0.003,0.014,-0.043,0.004,-1.561,0.06,-0.612,-0.27,-0.043,2.977,2,-1,-1,1,114.5,120,1,1,3,1,40.496166,-3.382904,0.746,114.8,0
104.87,114.2,40.496006,-3.383219,594,3,5,235.5,2.109,1,0.012,0.014,-0.001,-0.003,0.007,-0.001,-1.559,0.056,-0.599,-0.09,0.076,3.266,2,-1,-1,1,114.8,120,1,1,3,1,40.496166,-3.382904,0.746,114.8,0
105.87,114.5,40.495846,-3.383532,593.6,3,5,234.8,1.758,1,0.003,-0.03,0.016,-0.001,-0.016,0.008,-1.552,0.062,-0.586,0.14,0.05,3.272,2,-1,-1,1,114.2,120,1,1,3,1,40.496006,-3.383219,0.777,114.2,0
106.87,114.5,40.495678,-3.383837,593.7,4,5,234.1,1.406,1,-0.081,0.005,-0.006,-0.008,0.02,-0.008,-1.546,0.062,-0.576,0.211,0.012,3.356,2,-1,-1,1,114.5,120,1,1,3,1,40.495846,-3.383533,0.958,114.5,0
107.88,114.4,40.495522,-3.384142,594.1,4,5,233.8,1.055,1,0.003,0.031,0.001,0.01,0.033,-0.002,-1.545,0.052,-0.574,0.177,-0.005,3.181,1,-1,-1,0,114.5,120,1,1,3,1,40.495678,-3.383838,0.699,114.5,0
108.89,114.4,40.49535,-3.384444,593.7,4,5,233.8,0.352,1,-0.008,0.013,0.01,-0.024,-0.008,-0.001,-1.537,0.062,-0.569,0.181,0.011,3.191,2,-1,-1,1,114.4,120,1,1,3,1,40.495522,-3.384143,1.009,114.4,0
109.87,112.6,40.495171,-3.384761,593.3,4,5,232.7,1.055,1,0.038,0.022,-0.004,-0.003,0.019,-0.003,-1.542,0.035,-0.566,0.11,0.018,3.374,2,-1,-1,1,112.6,120,1,1,3,1,40.495171,-3.384761,0.791,112.6,0
110.87,112.9,40.495003,-3.385071,593.6,4,5,233.1,0.703,1,-0.021,-0.005,0.017,-0.011,0.001,0.007,-1.542,0.041,-0.567,0.09,-0.006,3.381,2,-1,-1,2,112.9,120,1,1,3,1,40.495171,-3.384761,0.791,112.6,0
111.9,113.3,40.494823,-3.385368,593.4,4,5,232,1.055,1,0.007,0.016,0.005,-0.011,-0.004,-0.001,-1.545,0.043,-0.559,0.13,-0.005,3.397,2,-1,-1,2,113.3,120,1,1,3,1,40.495003,-3.385071,0.825,112.9,0
112.87,113.3,40.49464,-3.385658,593.3,4,5,231.3,1.758,1,-0.043,0.01,-0.006,-0.004,0.024,0.008,-1.542,0.039,-0.558,0,0,3.292,2,-1,-1,2,113.3,120,1,1,3,1,40.494823,-3.385368,1.04,113.3,0
113.91,113.3,40.494465,-3.385944,593.2,4,5,231.3,0.703,1,-0.007,-0.005,0.023,-0.011,-0.013,0.017,-1.551,0.032,-0.558,-0.06,0.021,3.304,2,-1,-1,1,113.3,120,1,1,3,1,40.494823,-3.385368,1.04,113.3,0
114.88,113.8,40.494286,-3.386226,592.6,3,5,231.3,0,1,-0.025,0.002,0.027,-0.001,0.013,0.017,-1.558,0.027,-0.561,0,0.039,3.286,2,-1,-1,1,113.8,120,1,1,3,1,40.494465,-3.385944,1.293,113.8,0
115.89,114.3,40.494106,-3.386519,592.4,3,5,231,0.352,1,-0.038,-0.022,-0.013,-0.019,-0.016,0.005,-1.571,0.045,-0.557,-0.11,0.035,3.18,2,-1,-1,1,114.3,120,1,1,3,1,40.494465,-3.385944,1.293,113.8,0
116.87,115.1,40.493916,-3.386803,592.6,4,5,230.6,0.703,1,0.013,-0.007,-0.002,-0.011,0.01,0.001,-1.577,0.035,-0.558,0.05,0.041,3.217,2,-1,-1,1,114.3,120,1,1,3,1,40.494106,-3.386519,1.05,115.1,0
117.87,116.2,40.493729,-3.387081,593.1,4,5,229.9,1.055,1,0.045,0.051,-0.034,0.023,0.027,-0.018,-1.574,0.045,-0.555,0.03,0.009,3.245,2,-1,-1,1,115.1,120,1,1,3,1,40.493729,-3.387081,0.908,116.2,0
118.88,116.9,40.493534,-3.387376,593.7,4,5,229.9,0.703,1,0.019,-0.005,-0.006,0.017,-0.013,-0.005,-1.565,0.031,-0.557,0.07,0.004,3.248,2,-1,-1,1,116.2,120,1,1,3,1,40.493729,-3.387081,0.908,116.2,0
119.88,117.5,40.49334,-3.387671,593.1,4,5,229.1,0.858,1,-0.015,-0.04,0.008,0.003,-0.032,0.01,-1.563,0.039,-0.552,0.1,0.024,3.228,2,-1,-1,1,117.5,120,1,1,3,1,40.493534,-3.387377,0.716,116.9,0
120.88,117.8,40.493145,-3.387969,593,4,5,228.9,1.055,1,-0.036,-0.003,-0.012,-0.014,-0.006,-0.004,-1.559,0.031,-0.551,0.09,-0.017,3.297,2,-1,-1,1,117.5,120,1,1,3,1,40.49334,-3.387672,0.722,117.5,0
121.9,118.2,40.492943,-3.388267,593.2,4,5,228.9,0.197,1,0.052,0.039,0,0.052,0.02,0.007,-1.555,0.03,-0.551,0.05,-0.01,3.297,2,-1,-1,1,117.8,120,1,1,3,1,40.493145,-3.387969,0.657,117.8,0
122.94,118,40.492752,-3.388546,592.3,6,5,227.7,1.14,1,-0.009,-0.002,-0.018,-0.029,0.001,-0.016,-1.551,0.027,-0.549,0.05,-0.041,3.449,2,-1,-1,2,118,120,1,1,3,1,40.492943,-3.388267,0.887,118.2,0
123.88,118.3,40.492561,-3.38883,592.3,6,5,227.1,1.719,1,-0.054,-0.021,-0.02,-0.027,-0.015,-0.011,-1.549,0.016,-0.552,-0.13,0.027,3.35,2,-1,-1,1,118.3,120,1,1,3,1,40.492752,-3.388546,0.692,118,0
124.88,118.7,40.492359,-3.389119,592.6,6,5,227.1,0.579,1,0.048,-0.024,-0.001,0.014,-0.018,-0.002,-1.55,0.012,-0.553,-0.11,0.038,3.241,2,-1,-1,2,118.3,120,1,1,3,1,40.492561,-3.38883,0.818,118.3,0
125.88,117.7,40.492165,-3.38941,593,6,5,227.1,0,1,-0.039,-0.006,-0.011,0,-0.015,-0.005,-1.547,0.032,-0.553,-0.15,0.045,3.312,2,-1,-1,2,117.7,120,1,1,3,1,40.492359,-3.389119,0.642,118.7,0
126.91,118.4,40.491966,-3.389699,592.3,6,5,226.6,0.511,1,-0.022,-0.005,-0.003,-0.007,0.002,-0.002,-1.547,0.004,-0.558,-0.06,0.032,3.347,2,-1,-1,2,118.4,120,1,1,3,1,40.492165,-3.38941,0.9,117.7,0
127.91,118.5,40.491764,-3.389988,592.2,6,5,226.1,1.032,1,-0.023,0.001,0.013,-0.036,-0.001,0.008,-1.551,0.016,-0.559,-0.08,0.108,3.405,1,-1,-1,2,118.5,120,1,1,3,1,40.491966,-3.389699,0.829,118.4,0
128.91,118.6,40.491558,-3.390271,591.6,6,5,226.1,0.521,1,-0.067,0.011,-0.021,-0.002,-0.002,-0.016,-1.551,0.032,-0.556,0.02,0.04,3.35,2,-1,-1,2,118.6,120,1,1,3,1,40.491764,-3.389988,1.922,118.6,0
129.88,117.6,40.491348,-3.390556,591.8,6,5,226.1,0,1,-0.007,-0.018,0.009,0.002,0.003,0.002,-1.544,0.029,-0.56,0.101,-0.006,3.364,2,-1,-1,2,117.6,120,1,1,3,1,40.491764,-3.389988,1.922,118.6,0
130.88,117.7,40.491138,-3.390833,591.1,6,5,226.1,0,1,0.049,0.025,-0.015,0.021,0.042,-0.004,-1.541,0.021,-0.568,0,-0.012,3.367,2,81.61,2.5,2,117.6,120,1,1,3,1,40.491348,-3.390557,1.265,117.7,0
131.88,117.9,40.490936,-3.391115,590.8,6,5,226.1,0,1,0.034,-0.025,0.005,-0.011,-0.011,0.006,-1.547,0.02,-0.576,0.04,0.012,3.333,2,-1,-1,1,117.9,120,1,1,3,1,40.490936,-3.391115,0.752,117.9,0
132.87,118.1,40.490719,-3.391402,590.6,6,5,226.1,0,1,-0.057,0.012,0.011,-0.03,0.002,0.002,-1.546,0.017,-0.583,0.08,0.02,3.282,2,88.59,2.7,1,118.1,120,1,1,3,1,40.490936,-3.391115,0.752,117.9,0
133.88,118.1,40.490513,-3.39168,590.3,6,5,225,1.115,1,0.031,-0.03,-0.004,0.013,-0.013,-0.007,-1.552,0.022,-0.587,0.14,-0.008,3.331,2,89.77,2.74,1,118.1,120,1,1,3,1,40.490719,-3.391402,0.951,118.1,0
134.87,117.8,40.490318,-3.391951,590.3,6,5,225.9,0.919,1,-0.002,-0.002,0.015,0.01,-0.005,0.006,-1.552,0.045,-0.58,-0.03,-0.036,3.262,2,96.38,2.94,1,118.1,120,1,1,3,1,40.490513,-3.391681,1.915,117.8,0
135.88,117.9,40.490105,-3.392232,589.9,6,5,225.9,0.919,1,-0.031,0.061,0.008,-0.004,0.042,0.006,-1.555,0.043,-0.58,-0.591,-0.04,3.297,2,-1,-1,1,117.9,120,1,1,3,1,40.490513,-3.391681,1.915,117.8,0
136.95,117.9,40.489902,-3.3925,589.7,6,5,225.9,0,1,0.026,0.019,0.001,0.015,0.015,-0.004,-1.557,0.017,-0.589,-1.238,-0.023,3.357,2,-1,-1,1,117.9,120,1,1,3,1,40.490105,-3.392232,1.206,117.9,0
137.88,119.2,40.4897,-3.392772,589.6,6,5,225.9,0,1,-0.011,-0.004,-0.015,-0.012,0.008,-0.007,-1.561,0.011,-0.597,0,0,3.322,0,76.68,2.34,2,117.9,120,1,1,3,2,40.4897,-3.392772,0.746,119.2,0
138.88,118.9,40.489506,-3.393032,589.4,4,5,225.9,0.048,1,-0.046,0.017,-0.007,-0.033,-0.002,-0.007,-1.561,0.016,-0.604,0,0,3.32,0,106.84,3.24,2,118.9,120,1,1,3,2,40.4897,-3.392772,0.746,119.2,0
139.87,119.8,40.4893,-3.393304,589.9,4,5,225.9,0.048,1,0.032,0.021,-0.017,0.017,0.011,0.007,-1.566,0.007,-0.615,0.359,-0.004,3.326,1,107.6,3.26,2,118.9,120,1,1,3,2,40.489506,-3.393032,0.807,118.9,0
140.89,120.2,40.489105,-3.393589,589.4,4,5,226.1,0.247,1,0.003,0.05,-0.004,-0.032,0.034,-0.002,-1.567,-0.009,-0.628,0,-0.044,3.364,2,101.55,3.04,1,120.2,120,1,1,3,2,40.4893,-3.393304,0.899,119.8,0
141.87,121.3,40.488899,-3.393865,588.9,4,5,226.1,0.247,1,-0.015,-0.012,-0.005,-0.01,-0.013,-0.006,-1.567,0,-0.638,-0.18,-0.004,3.362,2,99.77,2.99,1,120.2,120,1,1,3,2,40.489105,-3.393589,1.032,121.3,0
142.9,122.2,40.488674,-3.394155,589.2,4,5,226.1,0.062,1,0.007,0.022,-0.004,0.014,0.002,-0.009,-1.562,0.002,-0.647,-0.09,0.023,3.41,2,107.29,3.18,1,121.3,120,1,1,3,2,40.489105,-3.393589,1.032,121.3,0
143.87,121.8,40.488457,-3.394449,588.6,6,5,226.1,0.062,1,-0.01,-0.026,-0.005,-0.01,-0.003,-0.006,-1.558,0.007,-0.65,-0.109,0.103,3.309,2,102.47,3.03,1,121.8,120,1,1,3,2,40.488674,-3.394155,1.272,121.8,0
144.89,122.6,40.488247,-3.394743,588.3,4,5,226.4,0.352,1,0.005,0,-0.007,-0.02,-0.005,-0.007,-1.559,0.023,-0.65,-0.02,0.072,3.372,1,120.89,3.57,1,121.8,120,1,1,3,2,40.488674,-3.394155,1.272,121.8,0
145.89,122.6,40.488037,-3.395039,588.7,4,5,226.4,0.352,1,0.003,-0.025,0.007,-0.021,-0.011,0.001,-1.562,0.027,-0.646,-0.08,0.063,3.365,1,138.44,4.06,1,122.6,120,1,1,3,2,40.488247,-3.394743,1.332,122.6,0
146.91,122.3,40.487823,-3.395322,588.5,4,5,225.7,0.703,1,-0.015,0.007,-0.026,-0.013,0.013,-0.016,-1.567,0.014,-0.648,-0.119,0.056,3.339,1,125.62,3.7,1,122.3,120,1,1,3,2,40.488247,-3.394743,1.332,122.6,0
147.91,123.3,40.487602,-3.395614,588.6,4,5,225.7,0.703,1,-0.018,0.007,-0.015,-0.002,-0.004,-0.014,-1.56,0.028,-0.646,-0.05,0.084,3.335,1,110.63,3.26,1,122.3,120,1,1,3,2,40.487823,-3.395322,0.893,122.3,0
148.87,122.8,40.487373,-3.395904,588.1,6,5,225.4,0.352,1,0.004,-0.01,-0.008,-0.007,-0.016,-0.008,-1.558,0.05,-0.634,-0.03,0.084,3.313,1,95.22,2.79,1,122.8,120,1,1,3,2,40.487602,-3.395614,0.575,123.3,0
149.87,123.7,40.48716,-3.396189,587.9,6,5,224.6,1.055,1,0.07,-0.006,-0.006,0.039,0.001,-0.002,-1.558,0.058,-0.622,0.099,0.059,3.338,1,92.64,2.7,1,123.7,120,1,1,3,2,40.487373,-3.395904,1.724,123.7,0
150.89,123.3,40.486942,-3.396472,587.4,6,5,223.9,1.406,1,-0.023,0.013,-0.007,-0.022,0.004,-0.015,-1.549,0.058,-0.609,0.04,0.062,3.335,2,79.71,2.32,1,123.7,120,1,1,3,2,40.487373,-3.395904,1.724,123.7,0
151.89,122.7,40.486725,-3.396751,588,4,5,222.9,1.758,1,-0.017,0.018,-0.016,-0.009,0.009,-0.02,-1.528,0.055,-0.6,0.06,0.053,3.434,1,75.86,2.22,1,123.3,120,1,1,3,2,40.486942,-3.396472,0.963,123.3,0
152.89,121,40.486507,-3.397017,588,4,5,222.5,1.406,1,-0.003,-0.012,-0.028,0.002,0.003,-0.001,-1.527,0.043,-0.599,-0.02,-0.015,3.405,2,63.04,1.85,1,122.7,120,1,1,3,2,40.486725,-3.396751,0.774,122.7,0
153.89,120.5,40.486282,-3.397284,587.5,6,5,221.8,1.055,1,0.007,-0.001,0.007,0,-0.005,-0.003,-1.525,0.04,-0.595,-0.08,0.04,3.368,1,50.8,1.52,1,120.5,120,1,1,3,2,40.486507,-3.397017,0.688,121,0
154.87,119.6,40.486061,-3.397543,587.1,4,5,221.5,1.055,1,0.014,-0.036,-0.007,-0.014,-0.034,0.001,-1.521,0.053,-0.588,0.04,0.061,3.415,2,43.87,1.31,1,120.5,120,1,1,3,2,40.486282,-3.397284,0.615,120.5,0
155.91,120.7,40.485836,-3.397796,587.7,4,5,220.4,1.406,1,-0.018,-0.058,-0.002,-0.02,-0.041,-0.006,-1.523,0.061,-0.58,0.16,0.042,3.278,2,38.25,1.14,2,120.7,120,1,1,3,2,40.486061,-3.397544,0.639,119.6,0
156.89,118.5,40.485615,-3.398042,587.2,6,5,219.7,1.758,1,0.032,0.024,0.009,0.014,0.022,0.006,-1.525,0.058,-0.573,0.04,0.034,3.295,2,32.03,0.97,2,118.5,120,1,1,3,2,40.485836,-3.397797,0.876,120.7,0
157.89,116.9,40.485394,-3.398287,587.2,6,5,219.4,1.055,1,-0.028,-0.023,0.015,-0.016,-0.011,0.014,-1.532,0.052,-0.573,-0.05,0.043,3.219,2,28.27,0.87,2,116.9,120,1,1,3,2,40.485615,-3.398042,0.592,118.5,0
158.87,117.5,40.485172,-3.398525,586.7,4,5,218.7,1.055,1,0.044,-0.005,0.022,0.006,-0.008,0.02,-1.548,0.05,-0.566,-0.03,0.054,3.215,2,25.2,0.78,2,116.9,120,1,1,3,2,40.485394,-3.398287,1.02,117.5,0
159.89,117.6,40.484943,-3.398759,586.9,4,5,218,1.351,1,0.047,-0.002,0,0.014,0.005,0.004,-1.557,0.049,-0.563,-0.18,0.011,3.3,2,23.79,0.73,2,117.5,120,1,1,3,2,40.484943,-3.398759,0.663,117.6,0
160.86,116.7,40.484699,-3.398974,586.2,4,5,217.3,1.412,1,-0.009,-0.037,0.022,-0.004,-0.024,0.008,-1.557,0.053,-0.561,-0.247,0.066,3.434,2,23.33,0.71,1,117.6,120,1,1,3,2,40.484943,-3.398759,0.663,117.6,0
161.9,117.5,40.484467,-3.399191,586,4,5,216.4,1.623,1,0.035,-0.017,-0.021,0.013,-0.02,-0.017,-1.554,0.079,-0.545,-0.662,-0.031,3.29,2,57.51,1.77,2,116.7,120,1,1,3,2,40.484699,-3.398974,0.589,116.7,0
162.87,118.5,40.484226,-3.399428,586.3,4,5,216.4,0.859,1,-0.061,0.019,-0.029,-0.023,0.026,-0.021,-1.538,0.06,-0.549,-1.254,-0.022,3.458,1,54.65,1.67,2,117.5,120,1,1,3,2,40.484467,-3.399191,0.918,117.5,0
163.87,117.3,40.483967,-3.399662,585.5,6,5,216.8,0.358,1,0.078,0.066,0.017,0.029,0.067,0.004,-1.535,0.007,-0.572,0,0,3.317,0,22.24,0.68,2,118.5,120,1,1,3,3,40.484226,-3.399428,0.723,118.5,0
164.87,117.7,40.483734,-3.399874,584.8,6,5,216.9,0.516,1,0.018,-0.001,0.03,0.02,0.02,0.017,-1.551,-0.017,-0.593,0,0.098,2.865,2,23.6,0.72,2,117.3,120,1,1,3,3,40.483967,-3.399662,1.366,117.7,0
165.87,119.3,40.483479,-3.400107,584.5,6,5,216.9,0.158,1,-0.036,0.001,0.009,-0.022,0.007,0.006,-1.558,-0.011,-0.608,0,0.08,3.195,1,26.62,0.81,2,117.7,120,1,1,3,3,40.483967,-3.399662,1.366,117.7,0
166.87,118.5,40.483231,-3.400343,585.5,4,5,216.9,0,1,0.011,0.004,0.004,-0.012,-0.015,0.003,-1.556,-0.011,-0.623,-0.04,0.04,3.134,2,31.85,0.96,2,119.3,120,1,1,3,3,40.483479,-3.400107,1.314,118.5,0
167.88,119.2,40.482994,-3.40057,586.6,4,5,217.6,0.636,1,0.036,0.022,-0.008,0.034,0.002,0.003,-1.557,-0.004,-0.636,-0.091,0.076,3.165,2,35.91,1.08,2,119.2,120,1,1,3,3,40.483479,-3.400107,1.314,118.5,0
168.92,121.1,40.48275,-3.400831,586.2,4,5,217.6,0.636,1,-0.046,0.001,-0.012,-0.023,-0.001,-0.011,-1.555,0.002,-0.649,-0.099,0.075,3.26,2,45.75,1.36,1,121.1,120,2,1,3,3,40.482994,-3.40057,1.258,121.1,0
169.87,121.9,40.482513,-3.401056,583,4,5,216.7,0.861,1,-0.012,-0.017,-0.015,-0.001,-0.018,-0.013,-1.544,0.015,-0.655,0,0.043,3.229,2,51.9,1.54,1,121.1,120,2,1,3,3,40.482994,-3.40057,1.258,121.1,0
170.87,120.8,40.482273,-3.401291,583.2,4,5,217.3,0.612,1,-0.049,0.014,-0.005,-0.032,0.008,-0.003,-1.541,0.011,-0.662,-0.04,0.057,3.242,2,-1,-1,1,121.9,120,1,1,3,3,40.482513,-3.401056,1.003,120.8,0
171.9,121.9,40.482025,-3.401532,582.7,4,5,216.3,0.96,1,-0.066,0.041,-0.006,-0.026,0.03,-0.01,-1.548,0.005,-0.674,-0.03,0.059,3.214,2,-1,-1,2,120.8,120,1,1,3,3,40.482025,-3.401532,0.986,121.9,0
172.88,121.7,40.481789,-3.401771,582.2,4,5,216.3,0.96,1,-0.002,-0.008,0.002,-0.04,-0.001,0.001,-1.548,-0.017,-0.695,0.301,0.146,3.257,2,-1,-1,2,121.7,120,1,1,3,3,40.482025,-3.401532,0.986,121.9,0
173.89,122.5,40.481548,-3.402012,582.2,4,5,216.3,0,1,-0.016,-0.033,0.011,-0.011,-0.048,0.002,-1.551,-0.018,-0.705,1.019,0.132,3.313,2,-1,-1,2,122.5,120,1,1,3,3,40.481789,-3.401771,0.559,121.7,0
174.9,123,40.481304,-3.402259,581.4,4,5,216.3,0,1,0.042,-0.038,-0.003,0.013,-0.041,-0.008,-1.541,0.006,-0.712,0,0,3.294,0,77.13,2.26,1,123,120,1,1,3,2,40.481548,-3.402012,1.911,123,0
175.87,122.1,40.481052,-3.402517,580.7,4,5,216.3,0,1,-0.015,-0.014,-0.007,-0.006,-0.037,-0.014,-1.534,0.023,-0.704,0,0,3.296,0,76.05,2.24,1,122.1,120,1,1,3,2,40.481548,-3.402012,1.911,123,0
176.87,121.9,40.48082,-3.402749,581,4,5,216.3,0,1,-0.082,-0.014,0.003,-0.038,-0.017,-0.003,-1.53,0.032,-0.7,-0.352,0.043,3.276,2,78.86,2.33,1,121.9,120,1,1,3,2,40.481052,-3.402517,1.364,121.9,0
177.9,121.4,40.480576,-3.403002,581.2,4,5,216.9,0,1,-0.04,0.01,0.011,-0.02,0.009,0.001,-1.534,0.018,-0.701,-0.3,0.096,3.236,2,78,2.3,2,121.9,120,1,1,3,2,40.481052,-3.402517,1.364,121.9,0
178.92,121.4,40.480328,-3.403244,578.4,4,5,216.7,0.312,1,0.027,0.007,0.009,-0.01,-0.002,0.008,-1.534,0.028,-0.701,-0.2,0.082,3.262,2,70.25,2.08,2,121.4,120,1,1,3,2,40.480576,-3.403002,0.897,121.4,0
179.94,120.6,40.480083,-3.403482,578.3,4,5,216.7,0.243,1,-0.019,0.007,-0.003,-0.019,0.019,0.003,-1.529,0.011,-0.709,-0.181,0.035,3.261,2,61.15,1.82,2,120.6,120,1,1,3,2,40.480328,-3.403244,1.422,120.6,0
180.88,120.6,40.479843,-3.403723,578.6,4,5,217.1,0.405,1,-0.03,0.038,0.003,0.003,0.027,0.006,-1.537,-0.006,-0.72,-0.221,0.077,3.259,2,63.18,1.89,2,120.6,120,1,1,3,2,40.480328,-3.403244,1.422,120.6,0
181.87,121.1,40.479607,-3.403955,577.3,4,5,217.1,0.405,1,0.004,0.011,-0.017,0.016,0.022,-0.019,-1.543,-0.02,-0.736,-0.299,0.083,3.406,2,74.04,2.21,1,120.6,120,1,1,3,2,40.479843,-3.403723,0.702,120.6,0
182.89,120.8,40.479359,-3.404217,576.5,4,5,219.4,2.36,1,0.003,0.033,-0.003,-0.022,0.013,0,-1.543,-0.043,-0.757,-0.109,0.114,3.425,2,71.18,2.12,1,121.1,120,1,1,3,2,40.479607,-3.403956,0.686,121.1,0
183.91,120.7,40.47913,-3.404464,576.5,4,5,221.1,4.064,1,-0.051,0.015,-0.017,-0.025,0.017,-0.004,-1.534,-0.053,-0.776,-0.1,0.054,3.307,2,-1,-1,1,120.7,120,1,1,3,2,40.479359,-3.404217,0.803,120.8,0
184.89,120.4,40.478912,-3.404703,575.5,4,5,221.4,2.02,1,0.017,-0.015,-0.001,-0.011,-0.029,-0.006,-1.539,-0.034,-0.79,-0.1,0.037,3.428,2,-1,-1,1,120.7,120,1,1,3,2,40.47913,-3.404464,0.622,120.7,0
185.88,120.5,40.478691,-3.404958,574.3,4,5,221.4,0.316,1,-0.001,0.007,0.011,-0.017,0.022,0.005,-1.534,-0.045,-0.807,-0.081,0.042,3.384,2,-1,-1,1,120.5,120,1,1,3,2,40.478912,-3.404703,0.849,120.4,0
186.88,119.4,40.478481,-3.405209,574.7,4,5,222.5,1.098,1,0.011,0.005,-0.004,0.009,0.013,-0.002,-1.538,-0.048,-0.826,-0.04,0.063,3.302,2,-1,-1,1,119.4,120,1,1,3,2,40.478691,-3.404958,1.283,119.4,0
187.93,120.1,40.478256,-3.405483,574.3,4,5,223.2,1.801,1,0.02,-0.033,0.02,0.002,-0.031,0.011,-1.544,-0.055,-0.839,0.092,0.054,3.346,1,-1,-1,1,119.4,120,1,1,3,2,40.478691,-3.404958,1.283,119.4,0
188.9,119.8,40.47805,-3.405756,573.5,4,5,224.3,1.758,1,0.022,0.001,-0.007,0.016,0.018,-0.004,-1.551,-0.054,-0.849,0.01,0.012,3.326,2,-1,-1,1,120.1,120,1,1,3,2,40.478256,-3.405483,1.165,119.8,0
189.95,120.7,40.477833,-3.40603,573.2,4,5,225,1.758,1,0.023,-0.025,-0.02,0.005,-0.012,-0.017,-1.55,-0.057,-0.863,-0.01,0.025,3.372,2,-1,-1,1,119.8,120,1,1,3,2,40.477833,-3.406031,0.873,120.7,0
190.93,120.8,40.477627,-3.406311,572.3,6,5,226.4,2.109,1,-0.037,-0.007,-0.008,-0.02,-0.011,-0.007,-1.539,-0.064,-0.874,-0.061,0.037,3.361,2,-1,-1,1,120.7,120,1,1,3,2,40.477833,-3.406031,0.873,120.7,0
191.96,119.7,40.477425,-3.406598,571.9,6,5,227.1,2.109,1,0.02,0.021,0.023,-0.002,0.011,0.018,-1.538,-0.048,-0.88,0.01,0.08,3.289,2,-1,-1,1,120.8,120,1,1,3,2,40.477627,-3.406312,0.788,120.8,0
192.93,120.1,40.477226,-3.406875,571.3,4,5,227.8,1.406,1,-0.009,0.026,0.016,-0.013,0.007,0.007,-1.542,-0.047,-0.885,0.04,0.048,3.346,2,-1,-1,0,119.7,120,1,1,3,2,40.477425,-3.406598,1.36,120.1,0
193.92,120.3,40.477024,-3.407166,570.9,4,5,229.2,2.109,1,-0.024,0.029,0.001,-0.027,0.011,-0.001,-1.551,-0.044,-0.887,0.02,0.018,3.413,2,-1,-1,1,120.1,120,1,1,3,2,40.477425,-3.406598,1.36,120.1,0
194.88,120.7,40.476818,-3.407472,570.3,4,5,229.9,2.109,1,-0.003,0.001,-0.014,-0.004,0.004,-0.012,-1.557,-0.047,-0.892,-0.07,0.046,3.307,2,-1,-1,1,120.3,120,1,1,3,2,40.477024,-3.407166,1.065,120.7,0
195.9,120.3,40.476627,-3.407781,570.1,4,5,231,1.758,1,-0.055,0.001,0.005,-0.038,0,0.003,-1.552,-0.062,-0.899,-0.1,0.041,3.262,2,-1,-1,1,120.7,120,1,1,3,2,40.477024,-3.407166,1.065,120.7,0
196.89,119.7,40.476437,-3.408095,570.5,4,5,232,2.109,1,0.014,-0.018,-0.008,-0.01,-0.004,-0.003,-1.548,-0.052,-0.9,-0.151,0.024,3.305,2,-1,-1,1,120.3,120,1,1,3,2,40.476627,-3.407782,1.22,119.7,0
197.88,119.4,40.476269,-3.408421,570.3,4,5,233.1,2.109,1,-0.018,0.008,0.014,-0.025,-0.007,0.01,-1.551,-0.057,-0.904,-0.179,0.026,3.354,2,-1,-1,2,119.4,120,1,1,3,2,40.476627,-3.407782,1.22,119.7,0
198.89,120.1,40.476089,-3.408741,570.6,4,5,234.1,2.109,1,-0.018,0.002,0.004,-0.01,0,0.001,-1.549,-0.061,-0.907,-0.1,0.039,3.401,2,-1,-1,2,119.4,120,1,1,3,2,40.476269,-3.408421,2.29,119.8,0
199.87,119.8,40.47591,-3.409051,569.3,4,5,235.2,2.109,1,0.011,-0.019,-0.008,0.011,-0.025,-0.004,-1.554,-0.048,-0.907,-0.1,0.019,3.282,2,-1,-1,1,120.1,120,1,1,3,2,40.476269,-3.408421,2.29,119.8,0
200.9,120.3,40.475742,-3.409378,568.9,4,5,236.2,2.109,1,-0.076,0.037,0.001,-0.028,0.026,-0.003,-1.552,-0.041,-0.905,-0.04,0.024,3.273,2,-1,-1,1,120.3,120,1,1,3,2,40.476269,-3.408421,2.29,119.8,0
201.88,120.2,40.475571,-3.409701,569.6,4,5,237,1.758,1,-0.003,0.001,-0.006,-0.004,0.002,0.001,-1.555,-0.047,-0.91,-0.09,0.056,3.414,2,-1,-1,1,120.3,120,1,1,3,2,40.475742,-3.409378,1.951,120.2,0
202.9,120.8,40.47541,-3.410026,569.4,4,5,238,1.758,1,-0.004,0.002,0.003,-0.012,0.007,-0.005,-1.561,-0.038,-0.909,-0.229,0.035,3.261,2,-1,-1,1,120.2,120,1,1,3,2,40.475742,-3.409378,1.951,120.2,0
203.89,120.4,40.475246,-3.410353,569,4,5,238.4,1.406,1,-0.048,-0.018,0.005,-0.019,0.002,0.01,-1.57,-0.03,-0.908,-0.371,0.032,3.223,2,-1,-1,0,120.8,120,1,1,3,2,40.47541,-3.410026,0.973,120.8,0
204.87,121.6,40.475094,-3.410694,569,4,5,239.4,1.406,1,-0.013,-0.058,0.01,-0.032,-0.056,0.006,-1.575,-0.022,-0.897,-0.379,0.074,3.313,1,-1,-1,0,121.6,120,1,1,3,2,40.475246,-3.410354,1.515,121.6,0
205.9,124.1,40.474934,-3.411036,571,4,5,239.8,1.406,1,0.008,-0.055,0.002,-0.022,-0.013,-0.003,-1.569,-0.024,-0.89,-0.991,-0.012,3.365,2,-1,-1,0,124.1,120,1,1,3,2,40.475246,-3.410354,1.515,121.6,0
206.89,122.7,40.474777,-3.411397,571.6,4,5,240.5,1.055,1,0.061,0.062,-0.024,0.053,0.043,-0.015,-1.563,-0.048,-0.896,0,0,3.3,0,-1,-1,0,122.7,120,1,1,3,2,40.475246,-3.410354,1.515,121.6,0
207.89,122,40.474632,-3.411751,570.7,4,5,241.9,2.109,1,-0.021,-0.018,0.005,0.043,-0.007,-0.01,-1.559,-0.058,-0.905,0,0,3.3,0,-1,-1,0,122,120,1,1,3,2,40.475246,-3.410354,1.515,121.6,0
208.87,122.7,40.47451,-3.412101,569.8,4,5,243.3,2.812,1,-0.006,0.01,-0.001,-0.018,0.02,-0.001,-1.555,-0.07,-0.917,0.23,-0.025,3.111,2,-1,-1,0,122.7,120,1,1,3,2,40.475246,-3.410354,1.515,121.6,0
209.89,122,40.474377,-3.412467,570.2,4,5,244.7,2.812,1,0.067,-0.039,0.023,0.023,-0.013,0.006,-1.564,-0.063,-0.923,0.079,0.04,2.999,1,-1,-1,0,122,120,1,1,3,3,40.474934,-3.411036,8.212,121.1,0
210.9,121.2,40.474251,-3.412818,571,4,5,245.4,2.109,1,-0.021,-0.053,-0.013,-0.034,-0.03,0.001,-1.562,-0.052,-0.925,0.01,0.044,3.27,2,-1,-1,0,122,120,1,1,3,3,40.474934,-3.411036,8.212,121.1,0
211.9,122.4,40.474133,-3.413177,573.1,6,5,245.7,1.055,1,-0.062,0.044,0,-0.031,0.013,-0.013,-1.559,-0.034,-0.917,-0.03,-0.002,3.181,2,-1,-1,0,121.2,120,1,1,3,3,40.474934,-3.411036,8.212,121.1,0
212.89,120.9,40.47401,-3.413538,574.7,6,5,247.1,1.758,1,-0.023,0.036,-0.003,-0.045,0.025,-0.003,-1.557,-0.054,-0.925,-0.179,0.032,3.242,2,-1,-1,0,120.9,120,1,1,3,3,40.474934,-3.411036,8.212,121.1,0
213.88,121.1,40.473892,-3.413888,574.1,6,5,248.2,2.461,1,-0.028,0.051,0.004,-0.044,0.026,0.005,-1.566,-0.061,-0.935,-0.089,0.035,3.226,2,-1,-1,1,121.1,120,1,1,3,3,40.474934,-3.411036,8.212,121.1,0
214.88,120.9,40.473778,-3.414257,572.8,6,5,249.6,2.461,1,0.017,-0.007,0.004,0.038,0.01,0.014,-1.566,-0.056,-0.944,-0.16,0.059,3.021,1,-1,-1,1,121.1,120,1,1,3,3,40.474934,-3.411036,8.212,121.1,0
215.94,121.1,40.473682,-3.414646,574.6,6,5,250.7,2.461,1,-0.008,-0.038,0,-0.015,-0.035,0.005,-1.567,-0.071,-0.948,-0.059,0.056,3.096,1,-1,-1,1,121.1,120,1,1,3,3,40.474934,-3.411036,8.212,121.1,0
216.89,121.1,40.473587,-3.415021,575.6,6,5,251.7,2.109,1,0.053,-0.008,0.019,0.012,-0.012,0.009,-1.57,-0.063,-0.95,0.03,0.023,3.018,2,-1,-1,1,121.1,120,1,1,3,3,40.474934,-3.411036,8.212,121.1,0
217.97,121.4,40.473503,-3.415394,575.3,6,5,252.1,1.406,1,0.067,-0.038,0.027,0.019,-0.037,0.006,-1.567,-0.042,-0.939,0,0.05,3.116,2,-1,-1,2,121.4,120,1,1,3,3,40.473778,-3.414257,5.156,123.6,0
218.88,122.3,40.473419,-3.415781,575.4,6,5,252.1,0.352,1,0.004,-0.046,0.008,0.006,-0.036,0.022,-1.565,-0.004,-0.924,0.02,0.083,3.246,2,-1,-1,2,121.4,120,1,1,3,3,40.473778,-3.414257,5.156,123.6,0
219.9,123.6,40.473328,-3.416163,575.6,6,5,251.7,0.352,1,-0.001,-0.021,-0.019,0.022,-0.019,-0.008,-1.56,0.004,-0.904,0.08,0.017,3.086,2,-1,-1,1,123.6,120,1,1,3,3,40.473778,-3.414257,5.156,123.6,0
220.96,123.1,40.47324,-3.41655,576.4,6,5,251.7,0.352,1,-0.044,-0.027,0.005,-0.022,-0.003,0.007,-1.557,0.008,-0.888,0.119,0.041,3.106,2,-1,-1,1,123.6,120,1,1,3,3,40.473778,-3.414257,5.156,123.6,0
221.87,123.4,40.473145,-3.416935,577.7,6,5,251.7,0,1,-0.008,-0.007,-0.001,-0.018,0,-0.01,-1.551,-0.001,-0.876,0.05,0.021,3.147,2,-1,-1,1,123.4,120,1,1,3,3,40.47324,-3.41655,1.809,123.4,0
222.93,123.3,40.473053,-3.41732,576.9,6,5,251.7,0,1,-0.012,-0.008,-0.011,0.001,0.004,-0.01,-1.546,-0.003,-0.866,-0.01,0.03,3.096,2,-1,-1,1,123.3,120,1,1,3,3,40.47324,-3.41655,1.809,123.4,0
223.88,123.3,40.472958,-3.417704,575.3,6,5,251.7,0,1,-0.003,0.007,0.023,-0.018,0.007,0.005,-1.543,0.005,-0.86,-0.109,0.077,3.298,2,-1,-1,1,123.3,120,1,1,3,3,40.473053,-3.41732,1.084,123.3,0
224.87,123.6,40.472862,-3.418097,575.6,6,5,251.7,0,1,0.033,-0.002,-0.01,0.02,0.004,-0.02,-1.531,0.008,-0.85,-0.04,0.081,3.116,2,-1,-1,0,123.3,120,1,1,3,3,40.473053,-3.41732,1.084,123.3,0
225.87,121.4,40.472771,-3.418466,575.7,6,5,251.7,0,1,0.013,0.008,0.01,0,0.006,0,-1.516,0.006,-0.842,-0.079,0.079,3.179,2,-1,-1,0,123.6,120,1,1,3,3,40.472862,-3.418098,1.124,121.4,0
226.88,122.8,40.472675,-3.418847,575.4,6,5,251.7,0,1,0.015,-0.009,0.004,-0.001,-0.013,0.016,-1.532,0.008,-0.833,-0.08,0.075,3.173,2,-1,-1,0,121.4,120,1,1,3,3,40.472862,-3.418098,1.124,121.4,0
227.91,122.5,40.472584,-3.419236,575.6,6,5,251.7,0,1,-0.012,0.024,-0.023,-0.009,-0.001,-0.011,-1.537,0,-0.829,-0.04,0.081,3.061,2,-1,-1,0,122.5,120,1,1,3,3,40.472675,-3.418848,1.283,122.5,0
228.89,122.8,40.472488,-3.419623,574.2,6,5,251.7,0,1,0.016,0.031,-0.026,-0.018,-0.012,-0.015,-1.528,0.008,-0.823,-0.02,0.033,3.174,2,-1,-1,0,122.5,120,1,1,3,3,40.472675,-3.418848,1.283,122.5,0
229.97,121.6,40.472408,-3.419979,574,6,5,251.7,0,1,-0.091,-0.022,-0.006,-0.056,-0.019,-0.018,-1.517,0.026,-0.813,-0.091,0.065,3.325,2,-1,-1,0,121.6,120,1,1,3,3,40.472488,-3.419624,0.845,122.8,0
230.89,120.7,40.472313,-3.420353,573.3,6,5,251.4,0.352,1,0.007,0.009,0.015,-0.022,-0.009,0.005,-1.52,0.023,-0.804,-0.159,0.086,3.22,2,115,3.43,1,120.7,120,1,1,3,3,40.472408,-3.419979,0.751,121.6,0
231.88,120.2,40.472221,-3.420714,572.2,6,5,251.4,0.352,1,-0.004,-0.008,-0.029,-0.018,-0.02,-0.015,-1.526,0.018,-0.797,-0.229,0.105,3.26,2,110.45,3.31,1,120.2,120,1,1,3,3,40.472313,-3.420353,1.985,120.2,0
232.88,119.2,40.47213,-3.421086,571.6,6,5,251,0.352,1,0.002,0.006,-0.024,-0.019,-0.001,-0.022,-1.517,0.02,-0.792,-0.272,0.109,3.237,2,90,2.72,2,119.2,120,1,1,3,3,40.472313,-3.420353,1.985,120.2,0
233.88,118.4,40.472027,-3.421453,570.8,6,5,250.7,0.703,1,-0.056,0.004,-0.003,-0.028,0.013,0.009,-1.514,0.008,-0.79,-0.448,0.131,2.979,2,70.41,2.14,2,118.4,120,1,1,3,3,40.47213,-3.421086,0.688,119.2,0
234.86,117.4,40.471939,-3.421821,571.1,6,5,250.7,0.352,1,0.021,-0.053,-0.035,0.025,-0.026,-0.023,-1.51,0.006,-0.788,-0.365,0.155,2.978,2,60.37,1.84,1,118.4,120,1,1,3,3,40.472027,-3.421454,1.429,117.4,0
235.88,116,40.471851,-3.422169,570.8,6,5,250,0.703,1,0.088,0.017,0.011,0.059,-0.003,-0.01,-1.507,0.031,-0.778,-0.28,0.132,2.937,2,39.24,1.2,1,117.4,120,1,1,3,3,40.471851,-3.422169,0.565,116,0
236.88,114.4,40.47176,-3.422521,570.2,6,5,250,0.703,1,-0.017,0.009,0.033,-0.028,-0.006,0.009,-1.504,0.019,-0.773,-0.259,0.067,3.235,2,30.23,0.94,1,116,120,1,1,3,3,40.471851,-3.422169,0.565,116,0
237.88,114.9,40.471661,-3.422881,571.2,6,5,249.6,0.352,1,-0.009,0.012,0.008,0.003,-0.003,0.012,-1.515,0.014,-0.773,-0.19,0.069,3.236,2,28.18,0.89,1,114.4,120,1,1,3,3,40.47176,-3.422522,0.664,114.4,0
238.89,114,40.471561,-3.423227,570.7,6,5,249.3,0.703,1,-0.04,0.017,0.012,-0.081,0.014,0.014,-1.537,0.002,-0.769,-0.1,0.054,3.195,2,26.74,0.84,1,114.9,120,1,1,3,3,40.471661,-3.422882,0.654,114.9,0
239.95,114.6,40.471458,-3.423579,571.3,6,5,249.6,0.352,1,-0.028,-0.03,0.008,0.013,-0.004,0.016,-1.553,0.007,-0.767,-0.11,0.061,3.093,1,-1,-1,1,114.6,120,1,1,3,3,40.471561,-3.423228,0.609,114,0
240.88,115.6,40.471348,-3.423936,568.3,4,5,249.3,0.352,1,-0.014,0.001,0.018,-0.033,-0.006,0.008,-1.564,0.02,-0.762,-0.14,0.119,3.169,2,-1,-1,1,114.6,120,1,1,3,3,40.471458,-3.42358,0.941,114.6,0
241.88,116.5,40.471241,-3.42429,569.4,4,5,249.3,0.352,1,-0.006,0.005,0.007,-0.042,0.009,0.004,-1.571,0.017,-0.76,-0.02,0.079,3.121,2,-1,-1,1,116.5,120,1,1,3,3,40.471348,-3.423936,1.093,116.5,0
242.89,117.7,40.471134,-3.424655,570.4,4,5,249.3,0,1,0.016,-0.01,-0.016,-0.009,0,-0.005,-1.573,0.016,-0.757,0.1,0.093,3.139,2,-1,-1,1,117.7,120,1,1,3,3,40.471348,-3.423936,1.093,116.5,0
243.95,119.1,40.471016,-3.425011,569.9,4,5,247.9,1.406,1,0.041,-0.039,0.015,0.009,-0.012,0.007,-1.571,0.03,-0.748,0.179,0.054,3.137,2,-1,-1,1,119.1,120,1,1,3,3,40.471134,-3.424656,1.985,119.1,0
244.88,119.6,40.470901,-3.425374,569.8,4,5,248.2,1.055,1,-0.031,0.037,0.003,-0.008,0.019,-0.005,-1.57,0.018,-0.747,0.14,0.036,3.096,2,-1,-1,1,119.6,120,1,1,3,3,40.471134,-3.424656,1.985,119.1,0
245.89,121,40.470779,-3.425734,570.5,4,5,248.6,0.703,1,0.029,0.003,-0.003,0.002,0.03,-0.002,-1.576,0.017,-0.749,0.09,0.036,3.131,2,-1,-1,1,121,120,1,1,3,3,40.470901,-3.425375,1.161,121,0
246.87,122,40.470657,-3.426111,570.8,4,5,248.9,0.703,1,0.042,-0.011,0.002,-0.015,0.003,0.004,-1.575,0.007,-0.754,-0.07,0.024,3.211,2,-1,-1,2,121,120,1,1,3,3,40.470901,-3.425375,1.161,121,0
247.91,122,40.470551,-3.426486,570.7,4,5,248.9,0.352,1,-0.017,0.048,0.003,-0.024,0.014,-0.003,-1.584,0.001,-0.761,-0.179,0.055,3.119,2,-1,-1,1,122,120,1,1,3,3,40.470657,-3.426112,1.245,122,0
248.89,122.7,40.47044,-3.426865,571.3,4,5,249.3,0.352,1,0.025,-0.006,-0.005,0.013,-0.006,-0.011,-1.583,-0.006,-0.772,-0.289,0.038,3.117,2,-1,-1,1,122,120,1,1,3,3,40.470657,-3.426112,1.245,122,0
249.94,122.8,40.470329,-3.427247,572,4,5,250,1.055,1,-0.017,0.016,-0.008,-0.032,0.028,-0.007,-1.58,-0.024,-0.785,-0.311,0.045,3.212,2,-1,-1,0,122.8,120,1,1,3,3,40.47044,-3.426866,1.156,122.8,0
250.88,122.8,40.47023,-3.427623,574.2,4,5,250.7,1.406,1,0.003,0.001,0.004,-0.001,-0.014,-0.01,-1.577,-0.028,-0.793,-0.24,0.132,3.153,2,-1,-1,0,122.8,120,1,1,3,3,40.47044,-3.426866,1.156,122.8,0
251.88,122.6,40.470131,-3.427999,573.8,4,5,251,1.055,1,0.029,-0.029,-0.005,0.031,-0.03,-0.013,-1.581,-0.018,-0.799,-0.08,0.102,3.148,2,-1,-1,0,122.6,120,1,1,3,3,40.47023,-3.427624,1.617,122.6,0
252.87,122.8,40.470024,-3.428387,573.3,4,5,251,0.352,1,0.005,0.023,-0.014,-0.019,0.014,-0.014,-1.565,-0.016,-0.802,0,0.081,3.123,2,-1,-1,0,122.6,120,1,1,3,3,40.47023,-3.427624,1.617,122.6,0
253.88,123.6,40.469929,-3.42877,574.1,4,5,251.7,0.703,1,-0.011,0.05,-0.011,0.007,0.039,-0.002,-1.562,-0.047,-0.821,0.16,0.111,3.136,2,-1,-1,0,122.8,120,1,1,3,3,40.470024,-3.428388,0.896,122.8,0
254.88,122.7,40.469826,-3.429164,574.6,4,5,252.4,1.406,1,0.013,0.022,0.007,0.002,0.016,0.006,-1.565,-0.05,-0.833,1.051,0.143,3.188,2,-1,-1,1,122.7,120,1,1,3,3,40.469929,-3.428771,1.072,122.7,0
255.93,121.3,40.469734,-3.429546,576.5,4,5,253.1,1.406,1,-0.046,-0.011,0.004,-0.01,-0.005,0,-1.565,-0.035,-0.839,0,0,3.209,0,-1,-1,1,121.3,120,1,1,3,3,40.469929,-3.428771,1.072,122.7,0
256.89,121.9,40.469654,-3.429921,576.6,4,5,253.8,1.406,1,0.016,0.012,0.002,0.029,-0.009,0.005,-1.563,-0.03,-0.847,0,0,3.209,0,-1,-1,1,121.9,120,1,1,3,2,40.469734,-3.429547,1.324,121.9,0
257.92,122,40.469574,-3.430308,575.4,4,5,254.5,1.406,1,-0.004,0,-0.005,-0.007,-0.004,-0.003,-1.565,-0.033,-0.855,0,0,3.206,0,-1,-1,0,121.9,120,1,1,3,2,40.469734,-3.429547,1.324,121.9,0
258.88,121.9,40.469494,-3.430691,576.1,4,5,255.2,1.406,1,-0.053,-0.001,-0.008,-0.03,0.002,0,-1.567,-0.039,-0.863,-0.289,-0.028,3.34,2,-1,-1,0,121.9,120,1,1,3,2,40.469574,-3.430308,0.896,122,0
259.94,121.9,40.469414,-3.431074,577,4,5,256.3,1.758,1,-0.018,-0.001,-0.034,-0.021,0.001,-0.022,-1.564,-0.036,-0.87,-0.199,0.027,3.365,2,-1,-1,0,121.9,120,1,1,3,2,40.469494,-3.430692,0.682,121.9,0
260.89,120.9,40.469337,-3.431456,579.6,4,5,257,1.758,1,-0.068,0.015,-0.028,-0.036,0.01,-0.025,-1.552,-0.052,-0.881,-0.17,0.06,3.288,2,-1,-1,0,121.9,120,1,1,3,2,40.469494,-3.430692,0.682,121.9,0
261.89,119.1,40.469273,-3.431834,577.2,4,5,258,1.758,1,-0.034,-0.02,-0.029,-0.02,-0.015,-0.027,-1.531,-0.04,-0.885,-0.151,0.065,3.346,2,71.89,2.17,1,119.1,120,1,1,3,2,40.469494,-3.430692,0.682,121.9,0
262.9,117.7,40.469215,-3.432217,578.3,4,5,258.4,1.406,1,-0.061,-0.034,-0.005,-0.019,-0.04,-0.004,-1.53,-0.021,-0.886,-0.03,0.058,3.327,2,71.53,2.19,1,117.7,120,1,1,3,2,40.469494,-3.430692,0.682,121.9,0
263.92,116.4,40.469158,-3.432598,579.2,4,5,258.4,0.352,1,-0.031,-0.011,0.005,-0.039,-0.013,0.008,-1.528,-0.011,-0.879,-0.03,0.021,3.375,2,71.51,2.21,1,116.4,120,1,1,3,2,40.469414,-3.431075,7.266,115.2,0
264.89,114.9,40.469105,-3.432968,579.2,4,5,258.8,0.352,1,-0.062,0.003,0.027,-0.027,0.007,0.024,-1.547,-0.01,-0.873,0.04,0.056,3.313,1,-1,-1,0,114.9,120,1,1,3,2,40.469414,-3.431075,7.266,115.2,0
265.89,115.1,40.469051,-3.433346,579.8,4,5,258.8,0.352,1,-0.04,0.001,0.019,-0.023,-0.002,0.021,-1.562,0,-0.867,-0.039,0.04,3.183,1,95.37,2.99,1,114.9,120,1,1,3,2,40.469414,-3.431075,7.266,115.2,0
266.87,115.2,40.46899,-3.433716,580.1,4,5,258.8,0,1,0.01,-0.015,0.011,0.024,-0.012,0.016,-1.572,-0.011,-0.859,-0.059,0.061,3.215,2,93.16,2.91,1,115.1,120,1,1,3,2,40.469414,-3.431075,7.266,115.2,0
267.89,115.8,40.468948,-3.434069,580.9,4,5,258.4,0.352,1,-0.001,-0.021,0.006,0,-0.018,0.005,-1.566,-0.02,-0.847,-0.04,0.024,3.184,2,71.53,2.23,1,115.2,120,1,1,3,2,40.469414,-3.431075,7.266,115.2,0
268.94,115.6,40.46888,-3.434439,581.5,4,5,257.7,1.055,1,-0.022,-0.045,0.002,-0.028,-0.04,0.006,-1.562,0.026,-0.816,-0.4,-0.033,3.299,2,54.66,1.7,2,115.6,120,1,1,3,2,40.468948,-3.434069,0.795,115.8,0
269.89,116.3,40.468803,-3.434807,581.5,6,5,257,1.406,1,0.039,0.049,-0.019,-0.006,0.04,-0.025,-1.549,0.02,-0.803,-1.196,-0.004,3.301,2,43.14,1.34,2,115.6,120,1,1,3,2,40.46888,-3.43444,0.733,115.6,0
270.89,115,40.468739,-3.435176,581.9,6,5,256.3,1.406,1,-0.088,0.025,-0.011,-0.061,0.034,-0.017,-1.543,-0.019,-0.802,0,0,3.199,0,37.39,1.16,2,116.3,120,1,1,3,3,40.468803,-3.434807,0.734,116.3,0
271.87,114.3,40.468647,-3.435539,581.5,4,5,257,0.703,1,-0.029,0.018,-0.024,-0.01,0.019,-0.012,-1.539,-0.025,-0.806,0,0,3.197,0,38.52,1.21,2,115,120,1,1,3,3,40.468739,-3.435177,0.661,115,0
272.89,113,40.468575,-3.435892,582.1,6,5,256.6,0.352,1,-0.019,0.008,-0.004,-0.007,0.01,0.002,-1.543,-0.025,-0.803,0.051,-0.011,2.595,1,30.9,0.97,2,114.3,120,1,1,3,3,40.468647,-3.43554,0.916,114.3,0
273.91,113,40.46851,-3.436262,582.5,4,5,257,0.352,1,-0.01,0,-0.005,-0.047,0.018,-0.015,-1.527,-0.04,-0.803,0.1,0.008,3.211,2,31.33,1,2,113,120,1,1,3,3,40.468575,-3.435892,1.382,113,0
274.88,111.9,40.468449,-3.436615,582.2,6,5,257,0.352,1,-0.002,-0.014,0.016,0.042,0.024,0.018,-1.522,-0.029,-0.802,0.02,-0.015,3.13,2,30.86,0.98,2,113,120,1,1,3,3,40.468575,-3.435892,1.382,113,0
275.89,111.9,40.468391,-3.43697,581.9,6,5,257.3,0.352,1,0.022,0.009,0.005,0.009,-0.001,0.002,-1.527,-0.025,-0.802,0.01,0.086,3.208,2,31.24,1.01,2,111.9,120,1,1,3,3,40.468449,-3.436615,1.677,111.9,0
276.9,111.3,40.468338,-3.437323,581.4,6,5,257,0.352,1,0.037,0.004,0.014,0.047,0.005,0.012,-1.54,0.001,-0.795,-0.099,0.044,3.194,2,32,1.04,2,111.3,120,1,1,3,3,40.468449,-3.436615,1.677,111.9,0
277.9,111.5,40.468281,-3.43768,580.9,6,5,257,0.352,1,-0.098,0.019,0.006,-0.051,0.002,0.006,-1.549,-0.003,-0.797,-0.161,0.037,3.221,2,31.67,1.02,1,111.3,120,1,1,3,3,40.468338,-3.437324,1.625,111.5,0
278.86,112.4,40.468224,-3.438035,580.1,6,5,256.6,0.352,1,0.021,0.071,0.005,-0.007,0.039,0.002,-1.544,0.019,-0.795,-0.171,0.033,3.109,2,30.73,0.99,1,111.5,120,1,1,3,3,40.468338,-3.437324,1.625,111.5,0
279.88,113,40.468166,-3.43839,580,6,5,257,0.352,1,-0.041,-0.011,-0.026,0.002,0.007,-0.015,-1.547,0.007,-0.798,-0.12,0.077,3.135,2,30.91,0.99,1,112.4,120,1,1,3,3,40.468224,-3.438035,1.107,113,0
280.88,112.8,40.468105,-3.438753,579.6,6,5,257,0.352,1,0.009,-0.004,-0.011,0.034,0.014,-0.011,-1.542,-0.002,-0.801,-0.14,0.14,3.269,2,31.24,1,1,113,120,1,1,3,3,40.468224,-3.438035,1.107,113,0
281.86,112.1,40.468037,-3.439112,579.8,6,5,257,0,1,-0.119,-0.032,0.005,-0.091,-0.026,-0.012,-1.538,0.007,-0.797,-0.11,0.071,3.338,2,31.27,1,1,112.8,120,1,1,3,3,40.468105,-3.438754,1.926,112.1,0
282.87,112,40.467979,-3.439468,579.5,6,5,257,0,1,-0.048,0.036,-0.03,-0.051,0.012,-0.016,-1.532,0,-0.802,-0.08,0.079,3.181,2,26.72,0.86,2,112.1,120,1,1,3,3,40.468105,-3.438754,1.926,112.1,0
283.88,111.2,40.467918,-3.439823,579.2,6,5,257,0,1,0.058,0.041,0.009,0.055,0.022,0.005,-1.525,0.005,-0.805,-0.02,0.015,3.244,2,26.85,0.86,2,112,120,1,1,3,3,40.467979,-3.439469,1.359,111.2,0
284.87,110.7,40.467861,-3.440181,578.8,4,5,257.3,0.352,1,-0.02,0.027,0.007,0.035,0.033,0.005,-1.526,-0.001,-0.813,0,0.007,3.182,2,26.93,0.88,2,110.7,120,1,1,3,3,40.467979,-3.439469,1.359,111.2,0
285.91,110.4,40.4678,-3.440539,577.5,4,5,257.7,0.703,1,-0.058,0.003,-0.008,-0.036,0.009,0.005,-1.524,-0.026,-0.828,-0.069,0.017,3.147,2,30.25,0.99,2,110.4,120,1,1,3,3,40.467861,-3.440181,0.911,110.7,0
286.88,110.2,40.467751,-3.440904,577.6,4,5,259.1,1.758,1,-0.035,-0.01,0.006,-0.035,0.001,0.009,-1.538,-0.036,-0.84,-0.149,0.052,3.182,2,33.96,1.11,2,110.4,120,1,1,3,3,40.4678,-3.44054,0.822,110.4,0
287.91,109.3,40.467682,-3.441265,577.5,4,5,259.5,1.758,1,0.009,0.005,0.012,-0.012,-0.009,0.004,-1.549,-0.032,-0.853,-0.319,0.107,3.274,2,31.73,1.05,2,109.3,120,1,1,3,3,40.4678,-3.44054,0.822,110.4,0
288.9,110.8,40.46764,-3.441629,578.7,4,5,260.2,1.055,1,-0.005,-0.007,0.023,-0.006,0.006,0.016,-1.554,-0.034,-0.863,-0.299,0.056,3.206,2,28.8,0.94,2,110.8,120,1,1,3,3,40.467751,-3.440904,2.581,110.8,0
289.87,110.5,40.467598,-3.441993,578.7,4,5,260.9,1.406,1,0,0.009,0.008,-0.039,-0.004,-0.002,-1.556,-0.036,-0.874,-0.271,0.069,3.158,2,31.13,1.01,2,110.5,120,1,1,3,3,40.467751,-3.440904,2.581,110.8,0
290.89,111.3,40.467548,-3.44236,578.3,4,5,261.6,1.406,1,0.011,-0.006,-0.017,0.004,-0.004,0.007,-1.557,-0.038,-0.884,-0.28,0.062,3.129,2,32.25,1.05,2,110.5,120,1,1,3,3,40.467598,-3.441993,0.603,110.5,0
291.94,111.4,40.467503,-3.442716,577.1,6,5,262.3,1.406,1,-0.049,-0.006,-0.01,-0.047,-0.013,-0.01,-1.559,-0.039,-0.895,-0.17,0.112,3.212,2,32.88,1.06,2,111.4,120,1,1,3,3,40.467548,-3.44236,1.346,111.4,0
292.89,112.5,40.467468,-3.443079,577.2,4,5,263.3,1.758,1,-0.106,0.018,-0.002,-0.045,0.014,-0.005,-1.549,-0.031,-0.897,-0.171,0.116,3.215,2,34.72,1.12,1,111.4,120,1,1,3,3,40.467548,-3.44236,1.346,111.4,0
293.89,112,40.467438,-3.443447,577,6,5,263.3,1.055,1,-0.086,-0.041,-0.003,-0.05,-0.006,-0.008,-1.543,-0.029,-0.894,-0.151,0.041,3.259,2,37.77,1.21,1,112.5,120,1,1,3,3,40.467468,-3.443079,1.388,112,0
294.87,112.2,40.467407,-3.443816,576.2,6,5,263.7,0.352,1,-0.164,-0.064,-0.022,-0.083,-0.035,-0.033,-1.544,-0.015,-0.893,-0.407,0.071,3.548,1,36.27,1.17,1,112,120,1,1,3,3,40.467468,-3.443079,1.388,112,0
295.87,112.2,40.467373,-3.444181,576.9,6,5,263.3,0.352,1,-0.07,-0.021,-0.011,-0.071,-0.02,-0.004,-1.542,-0.002,-0.878,-0.13,0.108,3.314,2,38.15,1.22,1,112.2,120,1,1,3,3,40.467468,-3.443079,1.388,112,0
296.87,112,40.467346,-3.444546,578.4,6,5,263.7,0.352,1,-0.055,0.059,-0.012,-0.009,0.027,-0.016,-1.538,0.002,-0.869,-0.24,0.114,3.261,2,39.18,1.26,1,112,120,1,1,3,3,40.467407,-3.443816,2.66,112,0
297.89,110.9,40.467308,-3.444901,579.3,6,5,263.3,0.352,1,-0.063,0.017,-0.008,-0.03,0.013,0,-1.535,0,-0.864,-0.351,0.068,3.23,2,37.31,1.21,2,110.9,120,1,1,3,3,40.467407,-3.443816,2.66,112,0
298.9,110.5,40.467289,-3.445262,579.2,6,5,263.7,0.352,1,0.002,-0.017,0.007,-0.033,0.002,0.012,-1.546,-0.008,-0.859,-0.378,0.054,3.273,2,36.66,1.19,2,110.5,120,1,1,3,3,40.467407,-3.443816,2.66,112,0
299.92,110.9,40.46727,-3.44563,579.7,6,5,263.7,0.352,1,-0.055,-0.001,-0.008,-0.006,0.015,-0.006,-1.546,-0.013,-0.853,-0.17,0.102,3.282,2,-1,-1,2,110.9,120,1,1,3,3,40.467308,-3.444901,2.45,110.9,0
300.89,109.9,40.467251,-3.445983,577.6,6,5,264,0.352,1,-0.046,0.018,-0.007,-0.052,0.027,-0.012,-1.538,-0.038,-0.857,0,0.13,3.343,2,-1,-1,2,109.9,120,1,1,3,3,40.467308,-3.444901,2.45,110.9,0
301.88,109.4,40.467255,-3.446323,576.4,6,5,265.1,1.406,1,-0.053,-0.046,-0.014,-0.028,-0.018,-0.004,-1.543,-0.04,-0.862,0.598,0.142,3.219,2,-1,-1,1,109.4,120,1,1,3,3,40.467251,-3.445983,1.026,109.4,0
302.96,108.4,40.467236,-3.44668,576.4,6,5,265.4,1.406,1,-0.045,-0.021,-0.007,-0.025,-0.014,-0.006,-1.54,-0.013,-0.855,1.358,0.08,3.213,2,-1,-1,1,108.4,120,1,1,3,3,40.467251,-3.445983,1.026,109.4,0
303.91,108.1,40.467213,-3.447036,577.2,6,5,265.1,0.352,1,-0.014,-0.058,-0.005,-0.066,-0.037,0.004,-1.539,0.014,-0.84,0,0,3.197,0,-1,-1,1,108.1,120,1,1,3,2,40.467236,-3.446681,2.383,107.5,0
304.88,107.5,40.46719,-3.447384,577.8,6,5,264.7,0.703,1,0.011,-0.006,-0.023,-0.006,-0.007,-0.003,-1.534,0.023,-0.826,0,0,3.197,0,30.33,1.02,1,107.5,120,1,1,3,2,40.467236,-3.446681,2.383,107.5,0
305.93,106.5,40.467163,-3.447727,578.3,6,5,264.4,0.703,1,0.025,0,0,0.001,-0.007,0.007,-1.54,0.024,-0.812,-0.09,-0.013,2.813,2,30.85,1.04,1,106.5,120,1,1,3,2,40.467236,-3.446681,2.383,107.5,0
306.88,106.9,40.467133,-3.448065,578.4,6,5,264,0.703,1,-0.025,0.007,0.024,-0.009,0.021,0.021,-1.548,0.017,-0.806,-0.04,0.055,2.762,2,30.45,1.03,1,106.5,120,1,1,3,2,40.467163,-3.447728,1.725,106.9,0
307.89,107.5,40.467106,-3.448412,576,6,5,264,0.352,1,-0.028,-0.02,-0.003,-0.008,-0.009,-0.006,-1.557,0.021,-0.797,-0.03,0.015,2.933,2,30.09,1.01,1,106.9,120,1,1,3,2,40.467163,-3.447728,1.725,106.9,0
308.88,107.9,40.467072,-3.448756,576.5,6,5,263.7,0.352,1,-0.04,0.016,-0.018,-0.04,-0.005,-0.011,-1.553,0.025,-0.786,0,0.069,3.017,2,29.96,1,1,107.5,120,1,1,3,2,40.467106,-3.448412,1.988,107.9,0
309.96,107.5,40.467026,-3.449115,577.1,6,5,263.7,0.352,1,0.055,0.016,0.015,-0.004,0.016,0.001,-1.556,0.017,-0.782,-0.109,0.076,2.889,2,30.03,1.01,1,107.5,120,1,1,3,2,40.467106,-3.448412,1.988,107.9,0
310.88,107.5,40.466999,-3.449468,577.3,6,5,264.4,0.703,1,0.005,0.01,-0.01,-0.014,0.014,0.001,-1.565,-0.001,-0.785,0.02,0.115,2.987,2,30.03,1.01,2,107.5,120,1,1,3,2,40.467026,-3.449115,1.489,107.5,0
311.95,107,40.466984,-3.4498,577.5,6,5,264.7,1.055,1,-0.009,-0.002,-0.022,-0.013,-0.004,-0.025,-1.538,-0.011,-0.789,-0.04,0.053,3.033,2,28.47,0.96,1,107,120,1,1,3,2,40.467026,-3.449115,1.489,107.5,0
