Timestamp (seconds),Speed (km/h),Latitude coordinate (degrees),Longitude coordinate (degrees),Altitude (meters),Vertical accuracy (degrees),Horizontal accuracy (degrees),Course (degrees),Difcourse: course variation (degrees),Boolean of system activated (1 if >50km/h),Acceleration in X (Gs),Acceleration in Y (Gs),Acceleration in Z (Gs),Acceleration in X filtered by KF (Gs),Acceleration in Y filtered by KF (Gs),Acceleration in Z filtered by KF (Gs),Roll (degrees),Pitch (degrees),Yaw (degrees),X: car position relative to lane center (meters),Phi: car angle relative to lane curvature (degrees),W: road width (meters),"State of the lane det. algorithm [-1=calibrating, 0=initializing, 1=undetected, 2=detected/running]",Distance to ahead vehicle in current lane (meters) [value -1 means no car is detected in front],Time of impact to ahead vehicle (seconds) [distance related to own speed],Number of detected vehicles in this frame (traffic),GPS speed (km/h) [same as in RAW GPS],Maximum allowed speed of current road (km/h),"Reliability of obtained maxspeed (0=unknown, 1=reliable, 2=used previously obtained maxspeed,3=estimated by type of road)","Type of road (1, trunk, secondary...)",Number of lanes in current road,"Estimated current lane (1=right lane, 2=first left lane, 3=second left lane, etc) [experimental]",GPS Latitude used to query OSM (degrees),GPS Longitude used to query OSM (degrees),OSM delay to answer query (seconds),GPS speed (km/h) [same as in RAW GPS]],Behavior
8.83,64.5,40.512924,-3.404577,612.5,4,5,331.9,0,1,-0.032,0,0.022,-0.03,-0.015,0.008,-1.535,0.029,0.023,0,0,3.5,-1,18.13,1.01,3,64.5,60,1,0,2,1,40.513615,-3.40508,0.869,61.7,0
9.82,63.6,40.513065,-3.40468,612.9,4,5,330.8,1.055,1,0.029,-0.005,0,0.026,-0.012,-0.006,-1.523,0.022,0.025,0,0,3.5,-1,13.35,0.76,3,63.6,60,1,0,2,1,40.513615,-3.40508,0.869,61.7,0
10.8,62.2,40.51321,-3.404772,613.3,4,5,330.8,1.055,1,-0.033,-0.013,0.05,-0.021,-0.018,0.036,-1.518,0.035,0.037,0.321,0.045,2.998,2,13.5,0.78,2,62.2,60,1,0,2,1,40.513615,-3.40508,0.869,61.7,0
11.8,60.9,40.513348,-3.404868,613.5,3,5,330.1,0.703,1,0.056,0.017,0.071,0.025,0.006,0.065,-1.533,0.018,0.048,0.251,0.014,3.001,2,15.12,0.89,1,60.9,60,1,0,2,1,40.513615,-3.40508,0.869,61.7,0
12.82,61.2,40.513477,-3.404971,613.8,3,5,329.4,1.406,1,0.026,-0.058,0.041,0.014,-0.031,0.042,-1.56,0.022,0.06,0.081,0.053,3.076,2,15.55,0.91,1,61.2,60,1,0,2,1,40.513615,-3.40508,0.869,61.7,0
13.81,61.7,40.513615,-3.40508,614,3,5,328.7,1.406,1,0.002,-0.012,0.014,0.012,-0.031,0.018,-1.576,0.039,0.087,-0.264,0.077,3.026,2,15.48,0.9,1,61.7,60,1,0,2,1,40.513615,-3.40508,0.869,61.7,0
14.84,64.3,40.513741,-3.405192,614.3,3,5,327,2.461,1,-0.01,-0.009,0.02,0.019,0.02,0.025,-1.567,0.059,0.101,-0.778,-0.014,3.147,2,17.98,1.01,1,64.3,60,1,0,2,1,40.513615,-3.40508,0.869,61.7,0
15.82,66.8,40.513882,-3.405315,614.6,3,5,325.5,3.164,1,-0.01,-0.023,0.013,-0.014,-0.015,0.017,-1.589,0.029,0.103,-1.131,-0.019,3.209,2,-1,-1,1,66.8,60,1,0,2,1,40.513615,-3.40508,0.869,61.7,0
16.83,68.9,40.514019,-3.405443,614.6,3,5,325.9,1.055,1,0,0.014,0.004,-0.002,0.03,0.007,-1.592,0.02,0.099,0,0,3.47,0,21.12,1.1,1,68.9,60,1,0,2,2,40.513741,-3.405192,2.306,68.9,0
17.81,71.4,40.514164,-3.405575,614.6,3,5,325.5,0.352,1,0.029,0.033,-0.002,0.028,0.046,0.002,-1.595,0.005,0.088,0.757,0.183,2.99,2,-1,-1,1,71.4,60,1,0,2,2,40.513741,-3.405192,2.306,68.9,0
18.8,73.5,40.514317,-3.405716,614.6,4,5,325.9,0.352,1,-0.012,0.018,-0.054,-0.019,0.015,-0.047,-1.574,-0.004,0.075,0.564,0.071,3.238,2,-1,-1,1,73.5,60,1,0,2,2,40.514164,-3.405576,0.951,71.4,0
19.82,73.5,40.514465,-3.405856,614.3,4,5,325.9,0.352,1,-0.053,0.014,-0.008,-0.014,0.021,-0.017,-1.564,0.001,0.062,0.324,0.086,3.303,2,29.45,1.44,1,73.5,60,1,0,2,2,40.514317,-3.405716,1.18,73.5,0
20.8,73.8,40.514614,-3.405996,614.3,4,5,326.2,0.352,1,-0.065,0.002,-0.003,-0.075,-0.012,0,-1.587,-0.028,0.054,0.312,0.071,3.152,2,31.1,1.52,1,73.8,60,1,0,2,2,40.514317,-3.405716,1.18,73.5,0
21.83,75.7,40.514771,-3.406132,613.9,4,5,327,1.055,1,0.002,-0.043,0.001,0,-0.032,0.001,-1.593,-0.031,0.058,0.223,0.022,3.153,2,30.95,1.47,1,75.7,60,1,0,2,2,40.514614,-3.405996,0.935,73.8,0
22.88,78,40.515102,-3.406422,614.5,4,5,324.5,0.352,1,-0.005,-0.081,0.006,-0.012,-0.063,-0.006,-1.588,-0.003,0.098,-0.162,-0.066,3.352,2,33.71,1.58,1,76.8,60,1,0,2,2,40.514771,-3.406132,0.942,75.7,0
23.89,78.3,40.515263,-3.406583,615.2,4,5,322,2.461,1,0.032,-0.025,0.002,0.029,-0.008,-0.004,-1.588,0.017,0.144,-0.262,0.027,3.246,2,37.3,1.72,1,78,100,1,0,1,2,40.514942,-3.406273,1.784,78.3,0
24.89,79.2,40.515411,-3.406743,615.5,4,5,320.6,4.57,1,0.003,0.083,-0.001,0,0.102,0.002,-1.592,0.005,0.153,0,0.139,3.097,2,31.14,1.43,1,78.3,100,1,0,1,2,40.514942,-3.406273,1.784,78.3,0
25.82,79.2,40.515411,-3.406743,615.5,4,5,320.6,3.867,1,-0.044,0.09,0.001,-0.045,0.087,0.006,-1.596,-0.04,0.127,0.44,0.176,3.025,2,30.92,1.41,1,79.2,100,1,0,1,2,40.514942,-3.406273,1.784,78.3,0
26.82,80.1,40.515564,-3.406911,615.8,4,5,322,1.406,1,0.078,0.031,0.013,0.017,0.053,0.009,-1.598,-0.077,0.067,0.474,0.08,2.735,2,28.54,1.28,1,80.1,100,1,0,1,2,40.514942,-3.406273,1.784,78.3,0
27.82,80.5,40.515736,-3.407051,616.4,4,5,325.2,4.57,1,-0.018,-0.01,0.047,-0.016,-0.016,0.034,-1.603,-0.067,0.039,0.141,-0.013,2.76,2,30.42,1.36,1,80.5,100,1,0,1,2,40.514942,-3.406273,1.784,78.3,0
28.81,82,40.515903,-3.4072,617.1,4,5,326.2,4.219,1,-0.048,-0.036,0.039,-0.023,-0.024,0.034,-1.629,-0.059,0.03,-0.162,0.03,2.685,2,-1,-1,1,82,100,1,0,1,2,40.515263,-3.406583,7.066,92.7,0
29.84,84.4,40.51609,-3.40734,617.5,6,5,327,1.758,1,-0.076,-0.059,0.033,-0.058,-0.062,0.02,-1.656,-0.022,0.038,-0.333,0.023,2.637,2,-1,-1,1,84.4,100,1,0,1,2,40.515263,-3.406583,7.066,92.7,0
30.83,86.1,40.516262,-3.407491,618.5,6,5,326.2,0.703,1,0.004,0.025,-0.004,0.005,0.013,-0.014,-1.656,0.008,0.067,-0.809,-0.004,2.641,2,61.41,2.57,2,86.1,100,1,0,1,2,40.515263,-3.406583,7.066,92.7,0
31.82,92.7,40.516453,-3.407653,619,6,5,327.7,1.406,1,-0.041,0.007,-0.005,-0.033,0.013,-0.01,-1.648,-0.009,0.077,0,0,3.367,0,59.81,2.32,2,92.7,100,1,0,1,2,40.515263,-3.406583,7.066,92.7,0
32.81,94.6,40.516651,-3.407831,620,6,5,324.8,2.812,1,0.008,0.029,-0.025,0.006,0.022,-0.012,-1.642,-0.032,0.077,0.646,0.064,2.799,2,28.2,1.07,2,94.6,100,1,0,2,2,40.516651,-3.407831,0.597,94.6,0
33.9,99.2,40.51704,-3.408188,620.8,6,5,325.2,3.164,1,0.019,0.012,-0.072,0.009,0.006,-0.079,-1.593,-0.043,0.076,0.283,-0.036,2.89,2,28.21,1.04,2,97.4,100,1,0,2,2,40.516651,-3.407831,0.597,94.6,0
34.85,99.2,40.51704,-3.408188,620.8,6,5,325.2,0.703,1,0.012,-0.009,0.01,-0.001,-0.014,0.013,-1.582,-0.04,0.076,-0.01,0.006,2.876,2,26.84,0.97,2,99.2,100,1,0,2,2,40.516838,-3.408005,0.944,99.2,0
35.83,98.7,40.517246,-3.408372,621.5,6,5,325.5,1.055,1,-0.011,-0.043,0.008,0.012,-0.023,0.013,-1.59,0.001,0.096,-0.304,-0.012,2.906,2,24.05,0.88,2,98.7,100,1,0,2,2,40.51704,-3.408188,1.148,98.7,0
36.82,99.8,40.517445,-3.408561,621.7,6,5,324.5,1.055,1,-0.063,0.007,0.001,-0.017,-0.006,0.004,-1.594,0.015,0.119,-0.8,-0.105,3.002,2,-1,-1,2,99.8,100,1,0,2,2,40.51704,-3.408188,1.148,98.7,0
37.85,101.1,40.517643,-3.408758,622.4,6,5,323.4,2.109,1,0.024,0.029,-0.001,0.035,0.037,0.001,-1.601,-0.025,0.119,-0.15,-0.055,2.865,2,17.16,0.61,1,101.1,100,1,0,2,2,40.51704,-3.408188,1.148,98.7,0
38.9,104.7,40.518063,-3.409169,623.1,6,5,323.8,2.109,1,-0.028,0.046,-0.008,-0.025,0.038,-0.006,-1.601,-0.029,0.113,0,0,3.309,0,-1,-1,1,103.4,100,1,0,2,2,40.51704,-3.408188,1.148,98.7,0
39.81,104.7,40.518063,-3.409169,623.1,6,5,323.8,1.406,1,0.033,0.032,0.021,0.01,0.015,0.014,-1.603,-0.025,0.106,0.313,0.046,2.756,2,-1,-1,1,104.7,100,1,0,2,2,40.517445,-3.408561,5.52,107.1,0
40.8,106.3,40.518272,-3.409384,623.6,6,5,324.1,1.758,1,-0.024,-0.076,-0.003,-0.039,-0.071,-0.001,-1.599,-0.009,0.102,0.253,0.039,2.81,2,-1,-1,1,106.3,100,1,0,2,2,40.517445,-3.408561,5.52,107.1,0
41.81,107.1,40.51849,-3.409592,623.9,6,5,324.5,0.703,1,0.028,0.018,-0.004,0.018,0.008,-0.005,-1.597,0.015,0.106,0.071,0.051,2.823,2,-1,-1,1,107.1,100,1,0,2,2,40.517445,-3.408561,5.52,107.1,0
42.81,108.7,40.518681,-3.409816,624.6,6,5,324.1,0.352,1,0.057,0.023,0.009,0.032,0.019,0.003,-1.594,0.001,0.099,-0.02,0.066,2.711,2,-1,-1,0,108.7,100,1,0,2,2,40.517445,-3.408561,5.52,107.1,0
43.8,109.3,40.518906,-3.410023,625,6,5,324.1,0.352,1,-0.059,-0.002,0.011,-0.023,0.006,0.003,-1.584,-0.012,0.091,-0.03,0.081,2.821,2,-1,-1,0,109.3,100,1,0,3,3,40.518681,-3.409816,1.576,109.3,0
44.8,109.9,40.519127,-3.410235,625.3,6,5,324.5,0.352,1,0.043,-0.002,-0.001,0,-0.015,-0.009,-1.577,-0.007,0.086,0,0.077,2.883,2,-1,-1,0,109.9,100,1,0,3,3,40.518681,-3.409816,1.576,109.3,0
45.8,110.5,40.519344,-3.410446,626.1,6,5,324.8,0.703,1,0.005,0.004,-0.015,-0.011,-0.01,-0.008,-1.573,-0.008,0.086,0.122,0.081,2.886,2,-1,-1,0,110.5,100,1,0,3,3,40.518681,-3.409816,1.576,109.3,0
46.81,114.8,40.519577,-3.41066,626,6,5,325.2,0.703,1,0.025,0.026,-0.007,-0.007,-0.013,-0.001,-1.566,-0.003,0.089,0.192,0.075,2.906,2,-1,-1,1,114.8,100,1,0,3,3,40.519127,-3.410235,2.947,114.8,0
47.8,111.2,40.519798,-3.410874,626.5,6,5,324.5,0.703,1,-0.016,0.025,-0.001,-0.038,0.01,-0.004,-1.559,-0.005,0.09,0.131,0.077,2.872,2,-1,-1,1,111.2,100,1,0,3,3,40.519127,-3.410235,2.947,114.8,0
48.83,110.9,40.52002,-3.411085,627.1,6,5,324.5,0.703,1,-0.044,0.006,0.004,-0.02,0.023,0.002,-1.56,-0.04,0.074,0.275,0.083,2.984,2,-1,-1,0,110.9,100,1,0,3,3,40.519798,-3.410874,1.976,110.9,0
49.8,112.3,40.520237,-3.411296,627.3,6,5,325.2,0.703,1,0.01,-0.011,0.004,0.034,-0.015,0.011,-1.564,-0.044,0.06,0.722,0.128,2.858,2,-1,-1,0,112.3,100,1,0,3,3,40.519798,-3.410874,1.976,110.9,0
50.85,110.9,40.520458,-3.411503,627.5,6,5,325.9,1.406,1,0.011,-0.029,0.005,0.068,-0.03,-0.004,-1.57,-0.018,0.058,0,0,3.199,0,-1,-1,0,110.9,100,1,0,3,3,40.519798,-3.410874,1.976,110.9,0
51.81,111.1,40.520683,-3.411703,627.7,6,5,326.2,1.055,1,-0.057,-0.065,-0.045,-0.011,-0.063,-0.047,-1.553,0.006,0.067,0,0,3.194,0,-1,-1,0,111.1,100,1,0,3,3,40.519798,-3.410874,1.976,110.9,0
52.8,110.4,40.520901,-3.411905,628.2,6,5,326.2,0.352,1,0.039,-0.018,0.001,-0.013,-0.021,-0.008,-1.541,0.032,0.082,-0.224,0.035,2.952,2,-1,-1,0,110.4,100,1,0,3,3,40.519798,-3.410874,1.976,110.9,0
53.8,109.1,40.52113,-3.412107,628.3,6,5,325.2,1.055,1,0.094,0.013,0.027,0.027,-0.001,0.015,-1.536,0.02,0.088,-0.112,0.083,2.947,2,-1,-1,0,109.1,100,1,0,2,2,40.520237,-3.411297,7.046,106.9,0
54.8,107.2,40.521347,-3.412303,628.7,6,5,324.8,1.406,1,-0.019,0.004,0.041,-0.004,0.014,0.03,-1.547,0.012,0.09,-0.03,0.141,2.864,2,-1,-1,0,107.2,100,1,0,2,2,40.520237,-3.411297,7.046,106.9,0
55.8,106.9,40.521572,-3.412506,629.4,6,5,325.2,0.352,1,-0.023,0.004,0.017,-0.018,0.003,0.01,-1.566,0.012,0.09,0.1,0.048,2.795,2,-1,-1,0,106.9,100,1,0,2,2,40.520237,-3.411297,7.046,106.9,0
56.9,107.5,40.522015,-3.412914,630.9,6,5,324.8,0.352,1,-0.02,-0.006,-0.007,-0.019,-0.01,0,-1.578,0.017,0.096,0.211,0.019,2.913,2,-1,-1,0,106.4,100,1,0,2,2,40.520237,-3.411297,7.046,106.9,0
57.81,107.5,40.522015,-3.412914,630.9,6,5,324.8,0.352,1,-0.081,-0.038,-0.01,-0.066,-0.028,-0.016,-1.583,0.015,0.102,0.294,0.054,2.856,2,-1,-1,0,107.5,100,1,0,2,2,40.522015,-3.412915,0.692,107.5,0
58.81,107.5,40.522232,-3.413118,631.5,6,5,324.8,0,1,-0.079,-0.035,-0.026,-0.051,-0.027,-0.005,-1.589,0.006,0.115,0.242,0.037,2.85,2,-1,-1,0,107.5,100,1,0,2,2,40.522015,-3.412915,0.692,107.5,0
59.87,104.5,40.522457,-3.413284,632.6,6,5,328.4,3.516,1,0.024,-0.038,-0.008,0,-0.058,-0.003,-1.592,0.036,0.15,0.121,0.014,2.898,2,-1,-1,0,104.5,100,1,0,2,2,40.522232,-3.413118,1.052,107.5,0
60.84,107.5,40.522667,-3.413532,633.5,6,5,322,6.328,1,-0.032,-0.034,-0.035,-0.026,-0.02,-0.022,-1.589,0.044,0.187,0.02,0,2.862,2,-1,-1,0,107.5,100,1,0,2,2,40.522232,-3.413118,1.052,107.5,0
61.81,107.6,40.522877,-3.413747,634.3,6,5,320.3,8.086,1,0.044,-0.002,-0.004,0.019,-0.018,-0.001,-1.582,0.031,0.226,-0.111,0.017,2.876,2,-1,-1,0,107.6,100,1,0,2,2,40.522667,-3.413532,1.106,107.6,0
62.83,107.6,40.523075,-3.413988,635.7,6,5,318.2,3.867,1,-0.03,0.002,-0.002,-0.083,-0.001,0.007,-1.58,0.036,0.265,-0.221,0.032,2.976,2,-1,-1,0,107.6,100,1,0,2,2,40.522667,-3.413532,1.106,107.6,0
63.82,107.3,40.52327,-3.414233,636.8,6,5,315,5.273,1,-0.009,-0.029,0.006,0.008,-0.008,0.014,-1.584,0.026,0.299,-0.252,0.004,2.872,2,-1,-1,0,107.3,100,1,0,2,2,40.522667,-3.413532,1.106,107.6,0
64.83,107.7,40.523457,-3.414495,637.8,6,5,312.9,5.273,1,0.024,0.004,0.032,0.001,-0.005,0.016,-1.583,0.032,0.337,-0.243,0.044,2.869,2,-1,-1,0,107.7,100,1,0,2,2,40.522667,-3.413532,1.106,107.6,0
65.86,107.3,40.523636,-3.414755,639.3,6,5,310.1,4.922,1,0.024,-0.047,0.029,0.022,-0.01,0.012,-1.591,0.031,0.372,-0.334,0.045,2.817,2,-1,-1,1,107.3,100,1,0,2,2,40.523075,-3.413988,6.334,108.3,0
66.83,108.8,40.523804,-3.415022,639.8,6,5,307.6,5.273,1,0.001,0.005,-0.04,0.003,-0.006,-0.005,-1.593,0.047,0.406,-0.283,0.047,2.918,2,-1,-1,1,108.8,100,1,0,2,2,40.523075,-3.413988,6.334,108.3,0
67.82,110.1,40.523956,-3.415304,641,6,5,306.2,3.867,1,0.001,0.039,-0.049,-0.008,0.046,-0.045,-1.552,0.03,0.43,-0.414,0.009,2.856,2,-1,-1,1,110.1,100,1,0,2,2,40.523075,-3.413988,6.334,108.3,0
68.8,108.3,40.52412,-3.415602,642.1,6,5,303,4.57,1,0.038,0.006,-0.022,-0.011,0.003,-0.017,-1.519,0.024,0.451,-0.383,0.022,2.931,2,134.15,4.46,1,108.3,100,1,0,2,2,40.523075,-3.413988,6.334,108.3,0
69.81,106.2,40.524269,-3.415896,641.6,6,5,300.6,5.625,1,-0.044,-0.003,-0.007,-0.033,0.015,-0.013,-1.506,0.022,0.472,-0.242,0.068,2.909,2,83.47,2.83,1,106.2,100,1,0,2,2,40.523075,-3.413988,6.334,108.3,0
70.84,104.4,40.524403,-3.416199,641.8,6,5,298.5,4.57,1,0.018,-0.002,-0.005,0.02,-0.009,-0.007,-1.5,0.03,0.496,-0.131,0.078,2.944,2,47.12,1.63,1,104.4,100,1,0,2,2,40.524269,-3.415896,1.315,104.4,0
71.92,101.3,40.524624,-3.416811,641.6,6,5,293.6,4.219,1,0.012,-0.001,-0.009,0.005,0.011,-0.009,-1.495,0.035,0.523,-0.112,0.037,2.893,2,32.73,1.14,1,103,100,1,0,2,2,40.524269,-3.415896,1.315,104.4,0
72.84,101.3,40.524624,-3.416811,641.6,6,5,293.6,4.922,1,0.039,0.035,0.016,0.018,0.037,0.014,-1.491,0.025,0.541,-0.201,-0.001,2.561,1,27.93,0.99,1,101.3,100,1,0,2,2,40.524529,-3.416514,1.265,101.3,0
73.82,99.7,40.524719,-3.417124,641.1,6,5,290.7,5.625,1,0.079,-0.003,0.026,0.003,0.014,0.027,-1.494,0.035,0.547,-0.227,0.022,2.565,1,-1,-1,1,99.7,100,1,0,2,2,40.524529,-3.416514,1.265,101.3,0
74.84,99.1,40.524803,-3.417439,640.5,6,5,289.3,4.219,1,-0.023,0.068,0.011,0.02,0.063,0.007,-1.503,0.035,0.546,-0.242,-0.004,2.615,1,30.44,1.11,1,99.1,100,1,0,2,2,40.524719,-3.417125,0.992,99.7,0
75.82,98.6,40.524868,-3.417746,639.4,6,5,287.9,2.812,1,0.016,0.031,0.006,0.017,0.043,0.018,-1.508,0.013,0.528,-0.071,0.073,2.971,2,25.69,0.94,1,98.6,100,1,0,2,2,40.524719,-3.417125,0.992,99.7,0
76.81,98.1,40.52494,-3.418057,638.9,6,5,287.2,2.109,1,0.031,0.08,-0.018,0.014,0.057,-0.017,-1.502,0.013,0.514,0.04,0.072,2.935,2,19.42,0.71,1,98.1,100,1,0,2,2,40.524719,-3.417125,0.992,99.7,0
77.81,97.9,40.524998,-3.418366,638.4,4,5,285.8,2.109,1,-0.016,0.039,-0.006,-0.003,0.032,-0.01,-1.494,0.019,0.481,0.193,0.082,2.883,2,-1,-1,1,97.9,100,1,0,2,2,40.524719,-3.417125,0.992,99.7,0
78.8,96.1,40.525063,-3.418669,636.8,4,5,286.2,1.055,1,0.011,0.017,0.001,0.009,0.025,0.015,-1.493,0.025,0.454,0.414,0.057,2.97,2,13.8,0.52,1,96.1,100,1,0,2,2,40.524719,-3.417125,0.992,99.7,0
79.82,95.7,40.525131,-3.418975,635.1,4,5,286.2,0.352,1,-0.003,0.049,-0.051,-0.02,0.03,-0.046,-1.473,0.013,0.422,0.595,0.089,3.062,2,15.03,0.57,1,95.7,100,1,0,2,2,40.524719,-3.417125,0.992,99.7,0
80.8,94.9,40.525196,-3.419267,633.8,6,5,286.5,0.352,1,-0.016,0.045,0.023,-0.015,0.022,0.025,-1.491,0,0.384,0.804,0.075,3.029,2,14.79,0.56,1,94.9,100,1,0,2,2,40.524719,-3.417125,0.992,99.7,0
81.8,93.1,40.525257,-3.419561,632.5,6,5,287.2,1.055,1,0.052,0.073,-0.042,-0.016,0.06,-0.026,-1.506,-0.014,0.338,0.884,0.057,3.003,2,13.78,0.53,1,93.1,100,1,0,2,2,40.524719,-3.417125,0.992,99.7,0
82.82,92.1,40.525326,-3.419853,631.9,6,5,288.3,1.758,1,0,0.014,0.023,-0.026,0.022,0.015,-1.492,-0.038,0.274,0.964,0.047,3.074,2,13.85,0.54,1,92.1,100,1,0,2,2,40.524803,-3.41744,14.398,87.5,0
83.89,89.3,40.52549,-3.420415,630.5,6,5,292.1,4.219,1,-0.051,-0.013,0.018,-0.055,-0.01,0.008,-1.512,-0.009,0.234,1.05,0.001,2.994,2,-1,-1,1,89.9,100,1,0,2,2,40.524803,-3.41744,14.398,87.5,0
84.81,89.3,40.52549,-3.420415,630.5,6,5,292.1,3.867,1,0.009,0.027,-0.008,0.015,0.023,0.002,-1.516,-0.022,0.189,0.928,-0.018,2.872,2,12.28,0.5,1,89.3,100,1,0,2,2,40.524803,-3.41744,14.398,87.5,0
85.88,89,40.525677,-3.420944,629.7,6,5,295.7,2.461,1,-0.038,0.088,0.001,-0.082,0.048,-0.014,-1.526,-0.034,0.151,0.753,0.02,2.985,2,15.83,0.65,1,88.3,100,1,0,2,2,40.524803,-3.41744,14.398,87.5,0
86.92,87.9,40.52578,-3.421197,628.6,6,5,298.1,3.516,1,0.039,0.012,-0.004,-0.001,0.001,-0.004,-1.522,-0.039,0.105,0.878,0.064,3.076,2,13.3,0.54,1,89,100,1,0,2,2,40.524803,-3.41744,14.398,87.5,0
87.82,87.9,40.52578,-3.421197,628.6,6,5,298.1,4.219,1,-0.013,0.06,-0.009,-0.002,0.05,-0.007,-1.522,-0.056,0.05,0.424,-0.055,2.894,2,14.66,0.6,1,87.9,100,1,0,2,2,40.524803,-3.41744,14.398,87.5,0
88.82,87.5,40.52589,-3.421448,628.2,4,5,300.9,5.273,1,-0.031,-0.056,0,-0.035,-0.055,-0.004,-1.524,-0.071,-0.003,0.361,-0.052,2.856,2,12.92,0.53,1,87.5,100,1,0,2,2,40.524803,-3.41744,14.398,87.5,0
89.89,87.1,40.526142,-3.421921,627.3,4,5,304.5,5.625,1,0.004,-0.037,0.001,0.009,-0.03,0.006,-1.522,-0.074,-0.054,0.344,-0.057,2.788,2,11.36,0.47,1,87.7,100,1,0,2,2,40.524803,-3.41744,14.398,87.5,0
90.82,87.1,40.526142,-3.421921,627.3,4,5,304.5,3.516,1,-0.064,-0.054,0.007,-0.058,-0.028,-0.008,-1.522,-0.076,-0.094,0.383,-0.02,2.835,2,13.21,0.55,1,87.1,90,1,0,2,2,40.526012,-3.421687,0.934,87.1,0
91.81,86,40.526268,-3.422138,626.5,6,5,309.7,5.977,1,0.006,-0.051,0.005,-0.006,-0.051,0.006,-1.531,-0.064,-0.13,0.488,0.058,2.999,2,12.74,0.53,1,86,90,1,0,2,2,40.526142,-3.421921,0.853,87.1,0
92.84,85.6,40.526409,-3.422347,626,4,5,312.2,7.734,1,-0.03,-0.019,-0.005,-0.027,-0.034,-0.006,-1.528,-0.04,-0.166,0.453,0.034,2.922,2,15.16,0.64,1,85.6,90,1,0,2,2,40.526268,-3.422138,0.699,86,0
93.82,85.5,40.526566,-3.422556,625.4,4,5,313.9,4.219,1,-0.009,0.003,0.002,-0.004,0,0.004,-1.529,-0.048,-0.202,0.615,0.051,2.896,2,18.31,0.77,1,85.5,90,1,0,2,2,40.526409,-3.422347,1.416,85.5,0
94.84,85,40.526722,-3.422748,625,4,5,316.8,4.57,1,-0.031,-0.047,0.017,-0.016,-0.035,0.011,-1.531,-0.037,-0.22,0.617,0.048,2.88,2,25.01,1.06,1,85,90,1,0,2,2,40.526409,-3.422347,1.416,85.5,0
95.84,84.8,40.526867,-3.422936,623.8,6,5,318.9,4.922,1,-0.031,0.017,0.011,-0.029,-0.006,0.009,-1.535,-0.042,-0.245,0.425,0.038,2.873,2,16.49,0.7,1,84.8,90,1,0,2,2,40.526722,-3.422749,1.971,84.8,0
96.86,86.5,40.527031,-3.423129,623.6,6,5,320.6,3.867,1,0.002,-0.032,0.004,0.003,0.01,0.001,-1.538,-0.05,-0.282,0.365,0.062,2.948,2,15.04,0.63,1,86.5,90,1,0,2,2,40.526722,-3.422749,1.971,84.8,0
97.81,86.3,40.527206,-3.423306,623.4,6,5,322.7,3.867,1,0.005,0.014,-0.008,0.001,0.005,-0.006,-1.537,-0.051,-0.312,0.375,0.062,2.96,2,14.73,0.61,1,86.3,90,1,0,2,2,40.527031,-3.423129,0.688,86.5,0
98.8,86.3,40.527397,-3.423444,622.9,6,5,326.2,5.625,1,-0.03,-0.02,-0.027,-0.027,-0.033,-0.024,-1.537,-0.054,-0.334,0.455,0.056,2.995,2,15.82,0.66,1,86.3,90,1,0,2,2,40.527206,-3.423306,1.152,86.3,0
99.8,86.7,40.527588,-3.423585,622.2,6,5,328,5.273,1,0.007,-0.011,-0.013,0.006,-0.024,-0.013,-1.523,-0.057,-0.351,0.505,0.08,2.909,2,14.56,0.6,1,86.7,90,1,0,2,2,40.527206,-3.423306,1.152,86.3,0
100.8,85.7,40.527779,-3.42373,622,6,5,330.1,3.867,1,-0.002,-0.046,-0.005,-0.008,-0.044,0,-1.525,-0.057,-0.354,0.453,0.028,2.961,2,14.85,0.62,1,85.7,90,1,0,2,2,40.527206,-3.423306,1.152,86.3,0
101.83,85.4,40.527969,-3.423861,621.4,6,5,331.5,3.516,1,-0.001,-0.048,-0.02,-0.012,-0.056,-0.01,-1.523,-0.055,-0.355,0.454,0.042,2.886,2,17.11,0.72,1,85.4,90,1,0,2,2,40.527206,-3.423306,1.152,86.3,0
102.8,84.6,40.528164,-3.423991,620.9,6,5,332.6,2.461,1,-0.019,-0.003,-0.013,-0.018,-0.006,-0.012,-1.514,-0.035,-0.345,0.466,0.051,2.914,2,17.91,0.76,1,84.6,90,1,0,2,2,40.527206,-3.423306,1.152,86.3,0
103.8,84.7,40.528355,-3.424115,620.6,6,5,333.6,2.109,1,-0.019,-0.059,0.004,-0.003,-0.069,0.004,-1.508,-0.055,-0.332,0.516,0.029,2.884,2,17.09,0.73,1,84.7,90,1,0,2,1,40.527588,-3.423585,7.215,82.2,0
104.89,83.2,40.528721,-3.424363,619.3,6,5,333.6,0.703,1,-0.007,-0.03,0,-0.008,-0.038,0.002,-1.513,-0.012,-0.3,0.524,0.038,2.865,2,14.16,0.61,1,83.3,90,1,0,2,1,40.527588,-3.423585,7.215,82.2,0
105.8,83.2,40.528721,-3.424363,619.3,6,5,333.6,0.352,1,-0.04,0.005,-0.008,-0.046,0.008,-0.006,-1.514,-0.01,-0.273,0.484,0.031,2.924,2,15.79,0.68,1,83.2,90,1,0,2,1,40.527588,-3.423585,7.215,82.2,0
106.8,82.2,40.528908,-3.424492,619,6,5,332.9,0.703,1,-0.002,-0.03,0.033,-0.025,-0.027,0.028,-1.518,-0.028,-0.248,0.386,0.046,2.841,2,17.85,0.78,1,82.2,90,1,0,2,1,40.527588,-3.423585,7.215,82.2,0
107.8,82.4,40.529091,-3.424612,618.9,4,5,332.9,0.703,1,0.127,0.023,0.029,0.062,0.006,0.042,-1.549,-0.033,-0.223,0.373,0.047,2.77,2,19.98,0.87,1,82.4,90,1,0,2,1,40.527588,-3.423585,7.215,82.2,0
108.85,82.8,40.529278,-3.424732,618.3,6,5,332.2,0.703,1,-0.008,0.005,0.021,0.007,0.003,0.016,-1.553,-0.026,-0.192,0.327,0.048,2.79,2,22.2,0.97,1,82.8,90,1,0,2,1,40.529091,-3.424613,1.04,82.4,0
109.8,84.7,40.529465,-3.424855,618.3,4,5,331.5,1.406,1,-0.021,-0.031,-0.005,0.004,-0.027,0.009,-1.562,-0.02,-0.161,0.213,0.025,2.792,2,28.54,1.21,1,84.7,90,1,0,2,1,40.529091,-3.424613,1.04,82.4,0
110.8,86.2,40.529648,-3.424988,617.9,4,5,330.5,1.758,1,-0.057,-0.024,0.005,-0.046,-0.018,0,-1.567,-0.012,-0.127,0.151,0.043,2.911,2,29.64,1.24,1,86.2,90,1,0,2,1,40.529465,-3.424856,1.926,86.2,0
111.8,86.8,40.529835,-3.425131,617.5,4,5,329.4,2.109,1,0.015,0.017,-0.041,0.01,0.006,-0.024,-1.547,-0.001,-0.089,0.122,0.049,2.986,2,29.16,1.21,1,86.8,90,1,0,2,1,40.529465,-3.424856,1.926,86.2,0
112.81,88.6,40.530022,-3.425277,617,4,5,327.7,2.812,1,0.05,0.043,-0.024,0.028,0.028,-0.017,-1.543,0.006,-0.055,0,0.037,2.911,2,48.27,1.96,1,88.6,90,1,0,2,1,40.529835,-3.425131,0.994,86.8,0
113.8,86.9,40.530201,-3.425436,616.2,4,5,325.9,3.516,1,0.073,-0.011,-0.034,0.041,-0.001,-0.027,-1.536,0.006,-0.023,0,0.066,2.877,2,51.77,2.15,1,86.9,90,1,0,2,1,40.530022,-3.425277,1.905,86.9,0
114.83,87.8,40.530376,-3.425601,615.4,6,5,325.2,2.461,1,0.016,0.01,0.032,0.013,0,0.015,-1.529,-0.004,0.025,0.101,0.082,2.891,2,54.11,2.22,1,87.8,90,1,0,2,1,40.530022,-3.425277,1.905,86.9,0
115.8,88.2,40.53056,-3.425774,615.1,6,5,323.8,2.109,1,0.041,-0.016,0.034,0.029,-0.024,0.026,-1.531,-0.005,0.059,0.101,0.055,2.884,2,45.53,1.86,1,88.2,90,1,0,2,1,40.530376,-3.425601,1.226,88.2,0
116.83,87.4,40.530731,-3.425948,614.6,6,5,321.3,3.867,1,-0.046,0.012,0.024,-0.028,0.012,0.02,-1.538,-0.014,0.089,0.071,0.055,2.934,2,43.77,1.8,1,87.4,90,1,0,2,1,40.530376,-3.425601,1.226,88.2,0
117.84,88.6,40.530903,-3.426134,614.1,6,5,319.9,3.867,1,-0.014,0.028,0.004,-0.017,0.021,0.009,-1.557,0.012,0.121,0,0.045,2.976,2,33.17,1.35,1,88.6,90,1,0,2,1,40.530731,-3.425948,1.514,88.6,0
118.82,89.4,40.531075,-3.426323,613.6,4,5,317.8,3.516,1,-0.03,0.02,-0.017,-0.048,0.027,-0.025,-1.564,-0.019,0.141,0,0.084,2.986,2,32.43,1.31,1,89.4,90,1,0,2,1,40.531075,-3.426323,0.428,89.4,0
119.82,91.2,40.531254,-3.426534,612.9,4,5,317.1,2.812,1,-0.02,-0.023,-0.008,-0.018,-0.022,-0.008,-1.554,-0.018,0.159,0.131,0.071,3.06,2,36.94,1.46,1,91.2,90,1,0,2,1,40.531075,-3.426323,0.428,89.4,0
120.82,90.1,40.531425,-3.426725,612.4,4,5,315.7,2.109,1,-0.027,0,0.001,-0.036,-0.01,-0.006,-1.56,0.005,0.187,0.213,0.054,2.951,2,28.69,1.15,1,90.1,90,1,0,2,1,40.531075,-3.426323,0.428,89.4,0
121.8,90.6,40.531593,-3.426936,611.8,6,5,313.6,3.516,1,-0.029,0.012,-0.033,-0.021,0.017,-0.029,-1.553,0,0.21,0.222,0.026,2.992,2,27.24,1.08,1,90.6,90,1,0,2,1,40.531254,-3.426535,2.784,90.6,0
122.81,90,40.53175,-3.427156,612.2,6,5,312.2,3.516,1,0.002,0.017,-0.004,-0.002,0.021,-0.007,-1.547,0,0.227,0.212,0.053,2.994,2,24.12,0.96,1,90,90,1,0,2,1,40.531254,-3.426535,2.784,90.6,0
123.85,89,40.531902,-3.427368,612.6,6,5,310.4,3.164,1,-0.033,0.068,0.006,-0.035,0.053,0.006,-1.555,0.005,0.242,0.232,0.051,2.993,2,22.65,0.92,1,89,90,1,0,2,1,40.531254,-3.426535,2.784,90.6,0
124.81,87.8,40.532051,-3.427585,612.9,6,5,309,3.164,1,-0.031,-0.027,-0.037,-0.02,-0.013,-0.031,-1.553,-0.003,0.255,0.273,0.04,2.985,2,25.47,1.04,1,87.8,90,1,0,2,1,40.53175,-3.427156,2.854,87.8,0
125.81,87.2,40.532188,-3.427804,613,6,5,308.3,2.109,1,-0.029,0.019,-0.011,-0.028,0.02,-0.007,-1.546,-0.023,0.271,0.283,0.062,3.017,2,25.47,1.05,1,87.2,90,1,0,2,1,40.53175,-3.427156,2.854,87.8,0
126.85,85.8,40.532314,-3.428022,613.7,6,5,305.9,3.164,1,0.004,0.002,0.011,-0.019,-0.005,0.023,-1.56,-0.006,0.292,0.322,0.033,2.966,2,26.97,1.13,1,85.8,90,1,0,2,1,40.532188,-3.427804,0.875,87.2,0
127.81,83.2,40.532433,-3.428248,615.2,6,5,304.8,3.516,1,-0.022,0.025,0.01,-0.018,0.018,0.014,-1.574,-0.014,0.306,0.23,0.016,2.935,2,26.31,1.14,1,83.2,90,1,0,2,1,40.532314,-3.428022,1.106,83.2,0
128.86,83.4,40.532539,-3.428477,615.4,6,5,302.3,3.516,1,-0.028,0.002,0.034,-0.029,0.003,0.027,-1.595,-0.029,0.315,0.111,0.023,2.871,2,26.3,1.14,1,83.4,90,1,0,2,1,40.532539,-3.428477,0.945,83.4,0
129.91,84.3,40.532749,-3.428954,618.4,6,5,300.2,3.516,1,0.018,0.011,0.035,0.009,-0.002,0.027,-1.607,-0.03,0.32,0.061,0.036,2.819,2,30.9,1.34,1,83.1,90,1,0,2,1,40.532539,-3.428477,0.945,83.4,0
130.87,84.3,40.532749,-3.428954,618.4,6,5,300.2,2.109,1,-0.006,-0.015,0.009,-0.006,-0.032,0.03,-1.612,-0.025,0.329,0.051,0.039,2.829,2,26.3,1.12,1,84.3,90,1,0,2,1,40.532654,-3.428711,1.194,84.3,0
131.82,84.9,40.532879,-3.429204,619.4,6,5,299.2,2.109,1,-0.019,0.022,0.02,-0.009,0.024,0.017,-1.609,-0.024,0.34,0.05,0.031,2.87,2,25.12,1.07,2,84.9,90,1,0,2,1,40.532654,-3.428711,1.194,84.3,0
132.8,86.4,40.532986,-3.429445,620.4,6,5,297.1,3.164,1,-0.022,0.025,0.007,-0.015,0.006,0.006,-1.618,-0.023,0.346,0.02,0.045,2.843,2,24.21,1.01,1,86.4,90,1,0,2,1,40.532879,-3.429205,1.219,86.4,0
133.82,87,40.533085,-3.429693,622.2,6,5,295.7,3.516,1,-0.023,-0.006,-0.001,-0.004,0,0.007,-1.609,-0.017,0.352,0.091,0.053,2.832,2,24.84,1.03,1,87,90,1,0,2,1,40.532879,-3.429205,1.219,86.4,0
134.82,87.6,40.53318,-3.429959,623.5,6,5,294.3,2.812,1,0.007,0.032,-0.001,-0.004,-0.007,0.006,-1.604,-0.011,0.363,0.172,0.038,2.849,2,25.83,1.06,1,87.6,90,1,0,2,1,40.533085,-3.429694,2.809,88.7,0
135.82,88.7,40.533264,-3.430201,624.3,6,5,292.9,2.812,1,-0.015,0.019,-0.013,-0.032,0.006,-0.005,-1.605,-0.014,0.372,0.182,0.046,2.892,2,29.49,1.2,1,88.7,90,1,0,2,1,40.533085,-3.429694,2.809,88.7,0
136.82,89.1,40.533344,-3.43048,625.5,6,5,291.1,3.164,1,0,0.004,0.026,0.002,0.001,0.008,-1.602,-0.036,0.377,0.192,0.054,2.864,2,29.33,1.19,1,89.1,90,1,0,2,1,40.533085,-3.429694,2.809,88.7,0
137.81,88.5,40.533413,-3.430742,626.8,6,5,289.3,3.516,1,0.008,-0.004,0.004,0.006,-0.005,0.005,-1.607,-0.011,0.385,0.222,0.035,2.878,2,26.4,1.07,1,88.5,90,1,0,2,1,40.533344,-3.43048,1.187,88.5,0
138.82,88.5,40.533478,-3.431021,628.1,6,5,287.6,3.516,1,-0.056,0.022,0.01,-0.032,0,0.004,-1.606,-0.006,0.393,0.212,0.039,2.876,2,24.32,0.99,1,88.5,90,1,0,2,1,40.533344,-3.43048,1.187,88.5,0
139.9,89.7,40.533607,-3.431592,630.6,6,5,284.8,2.812,1,0.006,-0.022,-0.01,-0.009,-0.006,-0.014,-1.597,-0.006,0.396,0.182,0.043,2.91,2,23.82,0.96,2,89.5,90,1,0,2,1,40.533478,-3.431021,1.534,89.7,0
140.8,89.7,40.533607,-3.431592,630.6,6,5,284.8,2.812,1,-0.007,-0.005,-0.056,0.002,-0.016,-0.059,-1.585,-0.01,0.402,0.192,0.061,2.934,2,42.84,1.72,1,89.7,90,1,0,2,1,40.533478,-3.431021,1.534,89.7,0
141.82,88.8,40.533657,-3.431882,631.4,6,5,283.4,3.164,1,0.019,0.012,0.003,0.001,0.019,0.013,-1.57,-0.013,0.403,0.152,0.008,2.926,2,26.63,1.08,1,88.8,90,1,0,2,1,40.533607,-3.431593,1.44,88.8,0
142.84,87,40.53371,-3.432174,633.5,6,5,281.6,3.164,1,-0.062,0.003,-0.022,-0.038,-0.019,-0.006,-1.581,0.006,0.407,0.233,0.017,3.031,2,20.74,0.86,1,87,90,1,0,2,1,40.533607,-3.431593,1.44,88.8,0
143.83,86,40.533749,-3.43246,634.2,6,5,280.2,3.164,1,-0.032,0.011,0.041,-0.028,0.015,0.018,-1.579,-0.001,0.416,0.212,0.024,3.064,2,21.49,0.9,1,86,90,1,0,2,1,40.53371,-3.432174,0.772,87,0
144.81,86.2,40.533779,-3.432745,635.1,6,5,278.4,3.164,1,0.001,0.021,0.01,-0.009,0.005,0.017,-1.588,-0.023,0.419,0.061,-0.007,3.039,2,22.95,0.96,1,86.2,90,1,0,2,1,40.533749,-3.432461,0.699,86,0
145.82,85.3,40.533802,-3.433023,635.9,6,5,276.3,3.867,1,-0.057,-0.032,-0.012,-0.022,0.002,-0.005,-1.598,-0.033,0.413,0.02,0.03,2.974,2,25.05,1.06,1,85.3,90,1,0,2,1,40.533749,-3.432461,0.699,86,0
146.82,86.6,40.533817,-3.433311,637.1,6,5,275.6,2.812,1,-0.011,-0.002,0.001,0.012,-0.013,0.001,-1.593,-0.028,0.411,0.02,0.053,2.984,2,21.72,0.9,1,86.6,90,1,0,2,1,40.533749,-3.432461,0.699,86,0
147.81,85.9,40.533829,-3.4336,638.3,6,5,274.6,1.758,1,-0.008,-0.012,0.025,-0.005,-0.011,0.027,-1.596,-0.005,0.407,0.051,0.049,2.963,2,20.63,0.86,1,85.9,90,1,0,2,1,40.533749,-3.432461,0.699,86,0
148.82,86,40.533855,-3.433863,639.8,6,5,273.2,2.461,1,-0.023,0.035,0,-0.012,0.04,0.002,-1.601,-0.009,0.401,0.071,0.081,2.99,2,22.32,0.93,1,86,90,1,0,2,1,40.533779,-3.432745,7.701,87.4,0
149.82,86.7,40.533871,-3.434131,640.6,6,5,271.8,2.812,1,0.008,0.039,-0.019,0.013,0.009,0.007,-1.616,0.01,0.39,0.132,0.032,2.916,2,21.36,0.89,1,86.7,90,1,0,2,1,40.533779,-3.432745,7.701,87.4,0
150.85,87.3,40.533882,-3.434413,641.8,6,5,271.4,1.758,1,0.026,0.063,0.014,0.021,0.052,0.01,-1.594,0.005,0.373,0.212,0.082,2.945,2,22.01,0.91,1,87.3,90,1,0,2,1,40.533779,-3.432745,7.701,87.4,0
151.8,87.4,40.533886,-3.434711,642.9,6,5,271.1,0.703,1,0.014,-0.017,0.01,0.016,-0.002,0.007,-1.593,0.002,0.366,0.282,0.061,2.897,2,35.11,1.45,1,87.4,90,1,0,2,1,40.533779,-3.432745,7.701,87.4,0
152.9,86.7,40.533882,-3.435295,645.3,6,5,269.3,1.406,1,-0.048,-0.071,0.019,-0.032,-0.065,0.017,-1.593,-0.016,0.351,0.273,0.057,2.877,2,30.17,1.25,1,86.9,90,1,0,2,1,40.533779,-3.432745,7.701,87.4,0
153.8,86.7,40.533882,-3.435295,645.3,6,5,269.3,1.758,1,-0.022,-0.006,0.008,-0.01,0.001,0.011,-1.599,-0.008,0.342,0.132,0.04,2.868,2,23.69,0.98,1,86.7,90,1,0,2,1,40.533886,-3.435009,0.612,86.7,0
154.81,87.7,40.533882,-3.435577,647,6,5,268.9,1.055,1,-0.021,0.006,0.01,-0.007,0.019,0.009,-1.613,-0.032,0.303,0.081,0.04,2.845,2,23.25,0.95,1,87.7,90,1,0,2,1,40.533882,-3.435296,0.734,86.7,0
155.84,87.3,40.533882,-3.435866,647.6,6,5,270,1.055,1,-0.028,-0.035,-0.017,-0.027,-0.022,-0.024,-1.612,-0.011,0.279,0.161,0.091,2.759,2,23.9,0.99,1,87.3,90,1,0,2,1,40.533882,-3.435577,1.063,87.3,0
156.81,88,40.533882,-3.436156,648.9,6,5,270.4,1.406,1,-0.02,0.023,-0.011,-0.016,0.022,-0.009,-1.594,0.001,0.265,0.363,0.065,2.692,2,23.48,0.96,1,88,90,1,0,2,1,40.533882,-3.435577,1.063,87.3,0
157.8,88,40.533882,-3.436451,649.8,6,5,270.4,0.352,1,0.012,-0.004,0.005,0.003,0.008,0.006,-1.614,0.003,0.25,0.504,0.053,2.653,2,23.16,0.95,1,88,90,1,0,2,1,40.533882,-3.436156,1.009,88,0
158.86,87.9,40.533875,-3.436746,650.6,6,5,270.4,0,1,0.035,0.003,0.015,0.031,-0.002,0.014,-1.619,0.019,0.243,0.606,0.046,2.604,2,28.81,1.18,1,87.9,90,1,0,2,1,40.533882,-3.436156,1.009,88,0
159.83,88.7,40.533878,-3.437028,652.1,6,5,269.6,0.703,1,-0.036,-0.013,-0.014,-0.03,-0.004,-0.005,-1.622,0.017,0.235,0.582,0.033,2.747,2,22.05,0.9,1,88.7,90,1,0,2,1,40.533875,-3.436746,1.183,88.7,0
160.84,90.1,40.533882,-3.437326,653,6,5,269.6,0.703,1,-0.033,-0.002,-0.004,-0.022,-0.002,-0.002,-1.617,0.02,0.228,0.555,0.027,2.656,2,18.6,0.74,1,90.1,90,1,0,2,1,40.533875,-3.436746,1.183,88.7,0
161.8,90.3,40.533878,-3.437619,654.6,6,5,269.3,0.352,1,0.014,0.007,-0.047,0.006,0.007,-0.04,-1.609,0.002,0.217,0.464,0.032,2.649,2,21.98,0.88,1,90.3,90,1,0,2,1,40.533875,-3.436746,1.183,88.7,0
162.8,90.3,40.533878,-3.437925,655.7,6,5,269.6,0.352,1,0.003,-0.015,-0.003,-0.006,-0.006,-0.003,-1.594,-0.002,0.207,0.413,0.012,2.683,2,18.13,0.72,1,90.3,90,1,0,2,1,40.533875,-3.436746,1.183,88.7,0
163.8,89.2,40.533875,-3.438223,656.7,4,5,269.3,0.352,1,0.002,0.005,-0.02,-0.006,-0.008,-0.013,-1.598,0,0.198,0.424,0.029,2.649,2,25.47,1.03,1,89.2,90,1,0,2,1,40.533875,-3.436746,1.183,88.7,0
164.83,89.7,40.533878,-3.438526,657.6,4,5,269.6,0.352,1,0.008,-0.015,-0.021,0.003,-0.003,-0.01,-1.579,0.001,0.195,0.374,0.038,2.645,2,25.89,1.04,1,89.7,90,1,0,2,1,40.533875,-3.436746,1.183,88.7,0
165.8,88.9,40.533882,-3.438824,658.4,4,5,269.3,0.352,1,-0.013,0.006,0.003,-0.01,0.001,0.001,-1.579,0.007,0.194,0.243,0.016,2.709,2,19.59,0.79,1,88.9,90,1,0,2,1,40.533875,-3.436746,1.183,88.7,0
166.81,88.8,40.533878,-3.439102,659.5,4,5,269.3,0.352,1,0.003,0.015,0.009,-0.003,0.005,0,-1.584,-0.003,0.187,0.232,0.034,2.801,2,23.17,0.94,1,88.8,90,1,0,2,1,40.533875,-3.436746,1.183,88.7,0
167.83,88.7,40.533875,-3.439385,660,4,5,269.3,0,1,0.036,0.009,-0.014,0.001,-0.008,-0.022,-1.573,-0.021,0.177,0.202,0.052,2.869,2,15.24,0.62,1,88.7,90,1,0,2,1,40.533875,-3.436746,1.183,88.7,0
168.8,87.1,40.533878,-3.43967,660.2,4,5,269.3,0,1,0.006,-0.021,0.008,0.008,-0.023,0.006,-1.58,-0.011,0.174,0.212,0.041,2.811,2,13.92,0.58,1,87.1,90,1,0,2,1,40.533875,-3.436746,1.183,88.7,0
169.83,87.6,40.533875,-3.439961,661,4,5,269.6,0.352,1,-0.014,-0.046,-0.002,-0.009,-0.056,0.006,-1.583,-0.023,0.173,0.192,0.04,2.817,2,14.57,0.6,1,87.6,90,1,0,2,1,40.533875,-3.436746,1.183,88.7,0
170.8,88.5,40.533875,-3.440253,661.2,4,5,269.6,0.352,1,0.011,-0.016,-0.03,0.02,-0.021,-0.016,-1.586,-0.005,0.175,0.081,0.021,2.754,2,14.32,0.58,1,88.5,90,1,0,2,1,40.533875,-3.436746,1.183,88.7,0
171.81,88.4,40.533875,-3.440536,661.9,4,5,268.9,0.703,1,0.007,0.029,-0.017,0.011,0.026,-0.015,-1.573,0.003,0.177,-0.061,-0.001,2.786,2,14.17,0.58,1,88.4,90,1,0,2,1,40.533875,-3.436746,1.183,88.7,0
172.8,89.7,40.533867,-3.440822,662.6,6,5,268.9,0.703,1,-0.01,0.014,-0.021,0.006,0.014,-0.023,-1.567,-0.011,0.166,-0.234,0.043,2.854,2,14.83,0.59,1,89.7,90,1,0,2,1,40.533875,-3.436746,1.183,88.7,0
173.8,89.7,40.533855,-3.441108,662.7,6,5,269.3,0.352,1,-0.012,-0.05,-0.026,-0.025,-0.045,-0.035,-1.559,-0.001,0.162,-0.263,0.032,2.879,2,14.05,0.56,1,89.7,90,1,0,2,1,40.533875,-3.436746,1.183,88.7,0
174.81,88.5,40.533848,-3.441394,662.5,6,5,269.3,0.352,1,-0.01,-0.003,0.017,0.023,-0.001,0.013,-1.55,0.02,0.17,-0.373,-0.026,2.933,2,13.99,0.57,1,88.5,90,1,0,2,1,40.533875,-3.436746,1.183,88.7,0
175.81,88.5,40.53384,-3.441677,663.1,6,5,268.9,0.352,1,-0.014,0.042,0.011,-0.021,0.062,0.004,-1.557,0.005,0.159,-0.494,0.015,2.973,2,14.76,0.6,1,88.5,90,1,0,2,1,40.533875,-3.436746,1.183,88.7,0
176.9,89.9,40.533836,-3.442246,662.9,6,5,270,0.352,1,-0.011,-0.007,-0.017,-0.003,-0.004,-0.008,-1.569,-0.009,0.149,-0.464,0.023,2.895,2,13.46,0.54,1,88.9,90,1,0,2,1,40.533875,-3.436746,1.183,88.7,0
177.81,89.9,40.533836,-3.442246,662.9,6,5,270,1.055,1,0.041,-0.038,-0.023,0.003,-0.024,-0.03,-1.548,0.001,0.147,-0.334,0.049,2.972,2,13.8,0.55,1,89.9,90,1,0,2,1,40.533875,-3.436746,1.183,88.7,0
178.88,89.8,40.533836,-3.442541,662.7,6,5,270,0.703,1,-0.02,-0.005,-0.008,-0.025,-0.002,-0.005,-1.538,0.006,0.151,-0.252,0.06,3.027,2,13.59,0.54,1,89.8,90,1,0,2,1,40.533875,-3.436746,1.183,88.7,0
179.81,89,40.533844,-3.442821,662.5,6,5,270,0,1,-0.009,-0.04,-0.001,-0.008,-0.011,0.015,-1.552,0.01,0.149,-0.162,0.072,2.972,2,17.91,0.72,1,89,90,1,0,2,1,40.533875,-3.436746,1.183,88.7,0
180.81,90.4,40.533852,-3.44312,661.6,6,5,270,0,1,-0.006,0.037,-0.031,-0.011,-0.001,-0.03,-1.539,-0.016,0.154,-0.091,0.039,3.009,2,15.69,0.63,1,90.4,90,1,0,2,1,40.533875,-3.436746,1.183,88.7,0
181.82,90,40.533852,-3.443424,661.2,6,5,270,0,1,0.003,0.015,-0.03,-0.007,0.008,-0.022,-1.528,-0.021,0.151,-0.03,0.029,3.044,2,15.42,0.62,1,90,90,1,0,2,2,40.533882,-3.437326,41.345,99.1,0
182.81,88.9,40.533852,-3.443718,660.9,6,5,269.6,0.352,1,-0.024,0.005,0.005,-0.004,-0.017,0.007,-1.529,0.031,0.169,-0.131,0.019,2.99,2,16.06,0.65,1,88.9,90,1,0,2,2,40.533882,-3.437326,41.345,99.1,0
183.86,88.2,40.533848,-3.444012,660.5,6,5,268.9,1.055,1,0.013,0.037,0.005,-0.006,0.025,0.003,-1.534,-0.007,0.156,-0.232,0.053,3.014,2,15.82,0.65,1,88.2,90,1,0,2,2,40.533882,-3.437326,41.345,99.1,0
184.81,88.5,40.533848,-3.444304,659.4,6,5,269.6,0.703,1,-0.038,-0.02,-0.03,-0.018,-0.019,-0.018,-1.533,-0.009,0.149,-0.223,0.069,2.934,2,15.42,0.63,1,88.5,90,1,0,2,2,40.533882,-3.437326,41.345,99.1,0
185.82,88.6,40.533848,-3.444599,659.6,6,5,270,1.055,1,-0.057,-0.001,-0.02,-0.03,0.004,-0.024,-1.526,-0.005,0.148,-0.081,0.096,2.949,2,15.68,0.64,1,88.6,90,1,0,2,2,40.533882,-3.437326,41.345,99.1,0
186.84,87.8,40.533848,-3.44489,658.8,6,5,270,0.352,1,-0.017,-0.036,0.001,-0.016,-0.029,0.001,-1.525,-0.006,0.151,0.01,0.073,2.965,2,14.53,0.6,1,87.8,90,1,0,2,2,40.533882,-3.437326,41.345,99.1,0
187.82,87.4,40.533848,-3.44518,658.4,6,5,269.6,0.352,1,0.014,0.028,-0.022,0.019,0.017,-0.016,-1.521,-0.002,0.156,0.051,0.078,2.891,2,14.26,0.59,1,87.4,90,1,0,2,2,40.533882,-3.437326,41.345,99.1,0
188.81,87.3,40.533852,-3.445458,657.8,6,5,270,0.352,1,-0.031,0.007,0.009,-0.012,0,0.015,-1.525,-0.007,0.151,0.12,0.051,2.854,2,19.03,0.79,1,87.3,90,1,0,2,2,40.533882,-3.437326,41.345,99.1,0
189.8,86.5,40.533848,-3.445729,657.2,6,5,269.6,0.352,1,-0.054,0.001,0.019,-0.043,-0.004,0.011,-1.536,-0.001,0.154,0.202,0.051,2.944,2,18.63,0.78,1,86.5,90,1,0,2,2,40.533882,-3.437326,41.345,99.1,0
190.84,87.4,40.533848,-3.446019,656.8,6,5,270,0.352,1,0.004,0.003,0.017,-0.016,0.01,0.012,-1.544,0.012,0.157,0.271,0.041,2.97,2,18.5,0.76,1,87.4,90,1,0,2,2,40.533882,-3.437326,41.345,99.1,0
191.83,87.7,40.533848,-3.446305,656.5,6,5,269.6,0.352,1,-0.025,-0.025,-0.018,-0.005,-0.039,-0.015,-1.53,0.008,0.161,0.312,0.023,2.91,2,15.28,0.63,1,87.7,90,1,0,2,2,40.533882,-3.437326,41.345,99.1,0
192.81,88.3,40.533848,-3.446597,656.2,6,5,269.6,0.352,1,-0.037,0.025,-0.003,-0.01,0.019,-0.007,-1.531,0.015,0.163,0.303,0.037,2.945,2,23.81,0.97,2,88.3,90,1,0,2,2,40.533882,-3.437326,41.345,99.1,0
193.88,87.5,40.533844,-3.447188,655.9,6,5,269.6,0.352,1,-0.009,0.004,0.001,-0.005,0.01,-0.004,-1.518,0.007,0.161,0.291,0.024,2.966,2,23.96,0.97,2,88.7,90,1,0,2,2,40.533882,-3.437326,41.345,99.1,0
194.84,87.5,40.533844,-3.447188,655.9,6,5,269.6,0.352,1,-0.03,-0.044,0.022,-0.025,-0.025,0.014,-1.528,0.004,0.162,0.262,0.025,2.955,2,20.8,0.86,2,87.5,90,1,0,2,2,40.533882,-3.437326,41.345,99.1,0
195.91,87.6,40.533836,-3.447768,654.9,6,5,269.3,0.352,1,-0.058,-0.053,0.007,-0.009,-0.022,0.004,-1.526,0.006,0.168,0.243,0.008,2.959,2,18.66,0.77,1,87.8,90,1,0,2,2,40.533882,-3.437326,41.345,99.1,0
196.83,87.6,40.533836,-3.447768,654.9,6,5,269.3,0.352,1,-0.014,0.06,0.039,-0.022,0.042,0.013,-1.545,0.008,0.174,0.01,0.007,2.897,2,17.76,0.73,1,87.6,90,1,0,2,2,40.533882,-3.437326,41.345,99.1,0
197.83,88.3,40.533833,-3.448059,654.7,6,5,268.9,0.703,1,-0.005,-0.016,0.04,-0.013,-0.012,0.044,-1.546,0.008,0.179,-0.242,-0.008,2.877,2,17.41,0.71,1,88.3,90,1,0,2,2,40.533882,-3.437326,41.345,99.1,0
198.8,89.8,40.533829,-3.448355,654.4,6,5,268.6,0.703,1,-0.022,-0.025,0.027,-0.017,-0.019,0.028,-1.561,-0.026,0.171,-0.526,0.027,2.911,2,14.99,0.6,1,89.8,90,1,0,2,2,40.533882,-3.437326,41.345,99.1,0
199.82,91.4,40.533825,-3.448651,654.4,6,5,269.3,0.703,1,-0.006,-0.054,0.077,-0.015,-0.044,0.078,-1.587,-0.012,0.169,-0.782,0.025,2.843,2,14.6,0.58,1,91.4,90,1,0,2,2,40.533882,-3.437326,41.345,99.1,0
200.89,94.7,40.533825,-3.448958,654,6,5,269.6,1.055,1,-0.019,-0.008,0.062,-0.02,-0.007,0.049,-1.628,0.008,0.177,-1.082,0.035,2.728,2,14.16,0.54,1,94.7,90,1,0,2,2,40.533882,-3.437326,41.345,99.1,0
201.83,99.1,40.533817,-3.449281,654.2,6,5,268.9,0.703,1,-0.024,0.078,-0.006,-0.035,0.031,0.003,-1.654,0.035,0.189,0,0,2.875,0,-1,-1,1,99.1,90,1,0,2,2,40.533882,-3.437326,41.345,99.1,0
202.92,108.8,40.533806,-3.449979,655,6,5,268.2,1.406,1,0.021,0.056,0.028,0.014,0.065,0.018,-1.652,0.019,0.177,0.172,0.03,3.414,2,-1,-1,1,104.6,90,1,0,2,2,40.533882,-3.437326,41.345,99.1,0
203.91,112.3,40.533787,-3.450346,655.1,6,5,268.9,0.703,1,0.008,-0.008,-0.028,0.011,0.037,-0.023,-1.649,-0.01,0.162,0.121,0.035,2.897,2,-1,-1,0,108.8,90,1,0,2,2,40.533813,-3.449624,2.213,112.3,0
204.85,112.3,40.533787,-3.450346,655.1,6,5,268.9,0.703,1,-0.02,0.007,-0.056,0.005,-0.009,-0.059,-1.622,-0.023,0.153,-0.02,0.057,2.868,2,-1,-1,0,112.3,90,1,0,2,2,40.533813,-3.449624,2.213,112.3,0
205.83,115.7,40.533779,-3.45072,656.7,6,5,269.6,1.406,1,-0.029,0.075,-0.07,-0.023,0.038,-0.04,-1.602,0.003,0.15,-0.03,0.06,2.945,2,-1,-1,0,115.7,90,1,0,2,2,40.533813,-3.449624,2.213,112.3,0
206.8,116.8,40.533783,-3.451114,657.6,6,5,269.3,0.352,1,0.008,0.133,-0.065,0,0.119,-0.082,-1.593,-0.01,0.132,0.142,0.112,2.963,2,-1,-1,0,116.8,90,1,0,2,2,40.533779,-3.450721,1.468,116.8,0
207.82,116.8,40.533791,-3.451486,657.2,6,5,270.4,1.055,1,-0.001,-0.044,-0.106,-0.024,-0.005,-0.092,-1.595,-0.002,0.11,0.887,0.141,2.9,2,-1,-1,0,116.8,90,1,0,2,2,40.533779,-3.450721,1.468,116.8,0
208.82,116.3,40.533802,-3.451859,652.2,6,5,272.5,3.164,1,-0.014,0.012,-0.027,-0.016,-0.006,-0.037,-1.543,0.033,0.123,0,0,2.886,0,-1,-1,0,116.3,90,1,0,2,1,40.533791,-3.451486,1,116.8,0
209.82,116.1,40.533813,-3.452244,653.2,6,5,271.4,1.055,1,-0.063,-0.039,-0.014,-0.016,-0.021,-0.025,-1.523,0.039,0.136,0,0,2.886,0,-1,-1,0,116.1,90,1,0,2,1,40.533791,-3.451486,1,116.8,0
210.9,114.4,40.533817,-3.453002,652.4,6,5,270,1.406,1,-0.038,0.018,-0.03,-0.013,0.03,-0.026,-1.513,0.017,0.143,-0.153,-0.025,2.952,2,-1,-1,0,114.9,90,1,0,2,1,40.533791,-3.451486,1,116.8,0
211.82,114.4,40.533817,-3.453002,652.4,6,5,270,1.406,1,0,0.006,-0.026,0.003,0.025,-0.025,-1.503,0.017,0.146,-0.07,0.076,2.995,2,-1,-1,0,114.4,90,1,0,2,1,40.533791,-3.451486,1,116.8,0
212.83,113,40.533821,-3.453373,651.5,6,5,270,0.703,1,0.004,-0.027,-0.01,-0.015,-0.023,-0.006,-1.494,0.018,0.153,-0.01,0.061,2.966,2,-1,-1,0,113,90,1,0,2,1,40.533791,-3.451486,1,116.8,0
213.9,111,40.533821,-3.453746,650.8,6,5,269.6,0.352,1,-0.041,0.037,0.001,-0.022,0.033,0.009,-1.5,0.006,0.153,0.02,0.032,2.978,2,-1,-1,0,111,90,1,0,2,1,40.533791,-3.451486,1,116.8,0
214.93,109.9,40.53381,-3.454112,650.1,6,5,269.6,0.352,1,0.021,0.013,0.03,-0.005,0.003,0.022,-1.504,-0.009,0.153,0.01,0.058,2.975,2,-1,-1,0,109.9,90,1,0,2,1,40.533791,-3.451486,1,116.8,0
215.87,109.2,40.533821,-3.454461,649.3,6,5,270,0.352,1,-0.072,0.011,-0.007,-0.052,-0.002,-0.01,-1.503,-0.009,0.151,0.02,0.094,2.97,2,-1,-1,0,109.2,90,1,0,2,1,40.533791,-3.451486,1,116.8,0
216.8,108.4,40.533817,-3.454823,648.7,6,5,269.6,0.352,1,0.038,-0.014,0,0.004,-0.01,-0.015,-1.495,-0.004,0.15,0,0.052,2.978,2,-1,-1,0,108.4,90,1,0,2,1,40.533791,-3.451486,1,116.8,0
227.83,99.6,40.533794,-3.458487,645.3,6,5,269.6,0.352,1,-0.063,-0.017,-0.018,-0.042,-0.009,-0.005,-1.556,-0.011,0.15,0.151,0.054,2.96,2,81.24,2.93,1,99.6,90,1,0,2,1,40.533802,-3.458168,1.052,99.6,0
228.81,99.9,40.533791,-3.458806,645.3,6,5,269.6,0.352,1,0.067,0.004,0.003,0.054,-0.008,-0.006,-1.539,-0.013,0.144,0.272,0.06,2.919,2,74.37,2.68,1,99.9,90,1,0,2,1,40.533802,-3.458168,1.052,99.6,0
229.84,99,40.533783,-3.459124,645.1,6,5,270,0.352,1,-0.03,-0.047,0.004,0.006,-0.047,-0.006,-1.533,0.017,0.149,0.376,0.055,2.83,2,55.47,2.02,1,99,90,1,0,2,1,40.533802,-3.458168,1.052,99.6,0
230.8,97.8,40.533779,-3.459438,645.6,6,5,269.6,0.352,1,0.016,0.04,0.002,0.013,0.018,0.004,-1.529,0.011,0.146,0.474,0.043,2.894,2,54.82,2.02,1,97.8,90,1,0,2,1,40.533802,-3.458168,1.052,99.6,0
231.81,97.2,40.533772,-3.459756,645.5,6,5,270,0.352,1,-0.035,-0.017,0.022,-0.046,-0.015,0.022,-1.529,0.006,0.147,0.615,0.012,2.928,2,72.32,2.68,1,97.2,90,1,0,2,1,40.533802,-3.458168,1.052,99.6,0
232.89,96.5,40.533772,-3.460393,646.2,6,5,269.3,0.352,1,-0.028,-0.021,-0.008,-0.003,0.003,-0.011,-1.533,-0.001,0.163,0.525,0.006,2.93,2,58.05,2.17,1,96.2,90,1,0,2,1,40.533791,-3.458806,7.248,95.5,0
233.89,95.5,40.533772,-3.460711,646.4,6,5,269.3,0.703,1,-0.039,-0.009,0.039,-0.054,-0.006,0.033,-1.532,-0.005,0.163,0.314,-0.013,2.978,2,52.26,1.95,1,96.5,90,1,0,2,1,40.533791,-3.458806,7.248,95.5,0
234.82,95.5,40.533772,-3.460711,646.4,6,5,269.3,0.703,1,-0.002,-0.03,0.024,-0.006,-0.016,0.017,-1.569,-0.023,0.156,0.141,0.027,2.907,2,50.63,1.91,1,95.5,90,1,0,2,1,40.533791,-3.458806,7.248,95.5,0
235.81,95.5,40.533772,-3.461028,646.8,6,5,269.3,0,1,0.019,-0.004,0.035,-0.012,-0.008,0.032,-1.578,-0.018,0.153,0.071,0.038,2.807,2,47.79,1.8,1,95.5,90,1,0,2,1,40.533791,-3.458806,7.248,95.5,0
236.81,96.3,40.533775,-3.461352,647.4,6,5,269.6,0.352,1,-0.019,0.039,-0.029,0.002,0.011,-0.021,-1.564,-0.017,0.153,0.05,0.037,2.847,2,45.03,1.68,1,96.3,90,1,0,2,1,40.533791,-3.458806,7.248,95.5,0
237.81,96.6,40.533772,-3.461668,647.6,6,5,269.6,0.352,1,0.016,0.034,-0.028,-0.008,0.02,-0.02,-1.564,-0.018,0.15,0.051,0.048,2.917,2,46.18,1.72,1,96.6,90,1,0,2,1,40.533791,-3.458806,7.248,95.5,0
238.88,95.5,40.533768,-3.461982,648.3,6,5,269.6,0,1,-0.004,0.072,0,-0.012,0.022,-0.005,-1.561,-0.023,0.149,0.071,0.067,2.904,2,44.05,1.66,1,95.5,90,1,0,2,1,40.533791,-3.458806,7.248,95.5,0
239.81,94.8,40.53376,-3.462291,649,6,5,269.6,0,1,-0.022,-0.094,0.029,-0.005,-0.054,0.021,-1.574,-0.006,0.15,0.101,0.041,2.847,2,40.65,1.54,1,94.8,90,1,0,2,1,40.533791,-3.458806,7.248,95.5,0
240.85,95,40.533756,-3.462618,649.5,6,5,270,0.352,1,0.001,-0.014,0.004,-0.002,-0.014,0.01,-1.578,0.012,0.159,0.04,0.045,2.847,2,38.07,1.44,1,95,90,1,0,2,1,40.533791,-3.458806,7.248,95.5,0
241.83,95.5,40.533749,-3.462933,649.9,6,5,269.3,0.703,1,-0.01,0.065,-0.021,-0.003,0.029,-0.016,-1.572,0.006,0.157,-0.061,0.013,2.913,2,40.72,1.54,1,95.5,90,1,0,2,1,40.533775,-3.461353,9.69,94.7,0
242.81,95.4,40.533741,-3.463253,650.3,6,5,269.3,0.703,1,-0.029,0.02,-0.01,-0.03,0.024,-0.004,-1.588,-0.02,0.142,-0.04,0.08,2.344,2,25.6,0.97,1,95.4,90,1,0,2,1,40.533775,-3.461353,9.69,94.7,0
243.85,95.4,40.533745,-3.463577,650.8,6,5,270,0.703,1,-0.036,0.009,-0.007,0.001,0,-0.007,-1.566,-0.009,0.141,0.061,0.154,2.559,2,20.48,0.77,1,95.4,90,1,0,2,1,40.533775,-3.461353,9.69,94.7,0
244.88,95.5,40.533737,-3.463892,651.1,6,5,270.4,1.055,1,-0.002,-0.028,-0.005,-0.008,-0.025,0,-1.557,0.025,0.152,0.232,0.082,2.7,2,26.26,0.99,1,95.5,90,1,0,2,1,40.533775,-3.461353,9.69,94.7,0
245.82,94.7,40.533749,-3.464174,651.4,6,5,270,0.352,1,-0.011,0.053,0.013,-0.023,0.044,0.016,-1.561,0.014,0.148,0.232,0.051,2.659,2,26.16,0.99,2,94.7,90,1,0,2,1,40.533775,-3.461353,9.69,94.7,0
246.97,94.7,40.533745,-3.464787,652.3,6,5,270.4,0.703,1,-0.028,0.034,0.021,-0.019,0.03,0.014,-1.572,0.015,0.136,0.262,0.079,2.714,2,26.39,1,1,94.6,90,1,0,2,1,40.533775,-3.461353,9.69,94.7,0
247.84,94.7,40.533745,-3.464787,652.3,6,5,270.4,0.703,1,0,0.034,-0.006,-0.026,0.044,0,-1.579,-0.019,0.109,0.253,0.092,2.799,2,26.34,1,1,94.7,90,1,0,2,1,40.533745,-3.464484,1.677,94.7,0
248.82,95.8,40.533752,-3.465104,652.4,6,5,271.8,2.109,1,-0.09,0.07,-0.042,-0.063,0.069,-0.044,-1.567,-0.035,0.073,0.302,0.099,2.763,2,27.16,1.02,1,95.8,90,1,0,2,1,40.533745,-3.464484,1.677,94.7,0
249.97,94.1,40.533787,-3.465728,652.7,6,5,276.3,3.867,1,-0.037,0.023,0.005,-0.04,0.031,0,-1.566,-0.043,0.02,0.367,0.08,2.682,2,27.73,1.05,1,95.3,90,1,0,2,1,40.533752,-3.465104,1.067,95.8,0
250.82,94.1,40.533787,-3.465728,652.7,6,5,276.3,4.57,1,-0.054,0.026,-0.015,-0.049,0.03,-0.022,-1.576,-0.051,-0.013,0.454,0.087,2.595,2,28.47,1.09,1,94.1,90,1,0,2,1,40.533787,-3.465729,0.833,94.1,0
251.88,94.1,40.533825,-3.466041,652.8,6,5,279.5,5.273,1,-0.061,0.002,0.008,0.007,-0.001,0.008,-1.58,-0.061,-0.068,0.463,0.08,2.547,2,27.82,1.06,1,94.1,90,1,0,2,1,40.533787,-3.465729,0.833,94.1,0
252.9,93.7,40.533875,-3.466353,653.9,6,5,283,6.68,1,0.002,-0.027,0.008,-0.014,0.002,0.003,-1.589,-0.075,-0.113,0.474,0.053,2.604,2,27.15,1.04,1,93.7,90,1,0,2,1,40.533787,-3.465729,0.833,94.1,0
253.83,95.1,40.533939,-3.46666,653.7,6,5,285.1,5.625,1,-0.055,0.034,-0.027,-0.051,0.023,-0.024,-1.588,-0.073,-0.158,0.425,0.055,2.582,2,26.95,1.02,1,95.1,90,1,0,2,1,40.533787,-3.465729,0.833,94.1,0
254.91,94.6,40.534012,-3.466962,654.5,6,5,288.3,5.273,1,-0.008,0.027,-0.016,-0.027,0.02,-0.027,-1.589,-0.08,-0.209,0.434,0.081,2.57,2,26.07,0.99,1,94.6,90,1,0,2,1,40.533787,-3.465729,0.833,94.1,0
255.8,93.7,40.534107,-3.467268,655,6,5,292.1,7.031,1,-0.005,0.005,-0.035,-0.01,0.01,-0.032,-1.565,-0.084,-0.249,0.415,0.081,2.603,2,25.46,0.98,1,93.7,90,1,0,2,1,40.533787,-3.465729,0.833,94.1,0
256.96,92.4,40.534298,-3.467796,655.4,6,5,297.8,6.328,1,0.023,0.029,-0.011,-0.001,0.023,-0.001,-1.563,-0.09,-0.296,0.477,0.088,2.725,2,25.39,0.98,1,93.4,90,1,0,2,1,40.533787,-3.465729,0.833,94.1,0
257.82,92.4,40.534298,-3.467796,655.4,6,5,297.8,5.625,1,0.004,-0.041,-0.014,-0.02,-0.025,-0.028,-1.551,-0.087,-0.334,0.496,0.085,2.76,2,24.38,0.95,1,92.4,90,1,0,2,1,40.533787,-3.465729,0.833,94.1,0
258.83,91.4,40.534405,-3.468047,656.1,6,5,300.6,5.977,1,-0.021,-0.007,-0.022,-0.023,0.001,-0.017,-1.545,-0.089,-0.378,0.505,0.068,2.762,2,22.91,0.9,1,91.4,90,1,0,2,1,40.533825,-3.466041,12.527,82.5,0
259.89,90.2,40.534531,-3.468303,656.4,6,5,303.4,5.625,1,-0.001,-0.019,-0.015,-0.012,-0.032,-0.022,-1.538,-0.084,-0.417,0.554,0.085,2.773,2,21.36,0.85,1,90.2,90,1,0,2,1,40.533825,-3.466041,12.527,82.5,0
260.98,85.7,40.534798,-3.468771,656.8,6,5,309,5.977,1,0.037,0.039,0.001,0.01,0.03,-0.005,-1.531,-0.072,-0.458,0.492,0.059,2.798,2,20.34,0.83,1,88,90,1,0,2,1,40.533825,-3.466041,12.527,82.5,0
261.81,85.7,40.534798,-3.468771,656.8,6,5,309,5.625,1,-0.051,-0.021,-0.013,-0.041,-0.008,-0.013,-1.537,-0.077,-0.485,0.443,0.043,2.78,2,19.84,0.83,1,85.7,90,1,0,2,1,40.533825,-3.466041,12.527,82.5,0
262.82,84.5,40.534927,-3.468986,657,6,5,310.8,4.219,1,0.029,-0.025,0.018,-0.017,-0.031,0.013,-1.54,-0.092,-0.522,0.443,0.06,2.748,2,19.7,0.84,1,84.5,90,1,0,2,1,40.533825,-3.466041,12.527,82.5,0
263.86,82.5,40.535076,-3.469195,657.3,6,5,315,5.977,1,-0.033,-0.029,0.01,0.006,-0.029,0.017,-1.558,-0.067,-0.555,0.526,0.11,2.678,2,18.8,0.82,1,82.5,90,1,0,2,1,40.533825,-3.466041,12.527,82.5,0
264.86,81.8,40.535233,-3.469376,657.7,6,5,317.5,6.68,1,-0.016,-0.012,0.014,-0.042,0.002,0.016,-1.58,-0.058,-0.589,0.392,0.03,3.243,2,-1,-1,1,81.8,90,1,0,2,1,40.533825,-3.466041,12.527,82.5,0
265.86,82.5,40.535397,-3.469542,658,6,5,320.6,5.625,1,0.032,-0.007,0.019,0.023,0.006,0.016,-1.605,-0.05,-0.628,0.669,0.089,2.728,2,-1,-1,1,82.5,100,3,0,1,1,40.535233,-3.469376,2.284,83.5,0
266.94,83.5,40.535553,-3.469711,658.6,6,5,323.4,5.977,1,-0.047,-0.001,-0.013,-0.093,-0.024,-0.012,-1.616,-0.028,-0.648,0.825,0.063,2.718,2,-1,-1,1,83.5,100,3,0,1,1,40.535233,-3.469376,2.284,83.5,0
267.85,85,40.535732,-3.469856,659.6,6,5,325.5,4.922,1,-0.064,0.004,-0.036,-0.063,0.001,-0.019,-1.622,-0.037,-0.669,0.798,0.053,2.694,2,-1,-1,1,85,100,3,0,1,1,40.535233,-3.469376,2.284,83.5,0
268.8,85.7,40.535908,-3.470012,659.9,6,5,327,3.516,1,0.002,0.008,-0.023,-0.018,0.041,-0.03,-1.621,-0.051,-0.702,0.627,0.006,2.697,2,-1,-1,1,85.7,100,3,0,1,1,40.535233,-3.469376,2.284,83.5,0
269.9,88,40.536297,-3.470277,661.4,6,5,333.3,5.273,1,-0.013,-0.015,0.011,-0.009,-0.018,0.001,-1.602,-0.048,-0.733,0.605,0.032,2.668,2,-1,-1,1,87.6,100,3,0,1,1,40.535233,-3.469376,2.284,83.5,0
270.83,88,40.536297,-3.470277,661.4,6,5,333.3,6.328,1,-0.014,0.056,-0.002,-0.013,0.064,-0.001,-1.603,-0.06,-0.769,0.475,0.028,2.764,2,-1,-1,1,88,100,3,0,1,1,40.535233,-3.469376,2.284,83.5,0
271.81,88.7,40.536503,-3.470391,661.7,6,5,336.4,5.625,1,0.001,0.023,0.027,-0.009,0.007,0.01,-1.606,-0.074,-0.803,0.405,0.058,2.662,2,-1,-1,0,88.7,100,3,0,1,1,40.535233,-3.469376,2.284,83.5,0
272.82,90,40.53672,-3.470501,662.4,6,5,340,6.68,1,-0.016,-0.045,0.007,-0.015,-0.028,-0.004,-1.613,-0.078,-0.827,0.482,0.072,2.658,2,-1,-1,1,90,100,3,0,1,1,40.535233,-3.469376,2.284,83.5,0
273.82,91.2,40.536942,-3.470586,663.5,6,5,342.1,5.625,1,-0.03,-0.056,0.008,-0.033,-0.05,-0.001,-1.618,-0.061,-0.837,0.545,0.066,2.661,2,-1,-1,0,91.2,100,3,0,1,1,40.535732,-3.469857,11.674,97.7,0
274.82,92.8,40.537163,-3.470686,664.2,6,5,343.8,3.867,1,-0.022,-0.056,-0.014,-0.001,-0.057,-0.01,-1.621,-0.067,-0.829,0.567,0.025,2.654,2,-1,-1,0,92.8,100,3,0,1,1,40.535732,-3.469857,11.674,97.7,0
275.83,94.1,40.537392,-3.470763,664.9,6,5,344.9,2.812,1,0.009,-0.069,-0.022,0.011,-0.108,-0.017,-1.622,-0.081,-0.815,0.575,0.034,2.643,2,-1,-1,0,94.1,100,3,0,1,1,40.535732,-3.469857,11.674,97.7,0
276.84,95.5,40.537617,-3.470841,665.8,6,5,345.6,1.758,1,0.017,-0.018,-0.024,-0.013,-0.012,-0.025,-1.611,-0.025,-0.792,0.515,0.027,2.633,2,-1,-1,0,95.5,100,3,0,1,1,40.535732,-3.469857,11.674,97.7,0
277.83,96.1,40.537846,-3.470914,666.2,4,5,345.2,0.352,1,-0.025,-0.03,-0.009,-0.027,-0.03,0,-1.595,-0.014,-0.769,0.393,-0.004,2.637,2,-1,-1,0,96.1,100,3,0,1,1,40.535732,-3.469857,11.674,97.7,0
278.83,97.7,40.538074,-3.470999,666.8,4,5,345.6,0.352,1,0.002,0.013,0.001,-0.029,-0.004,-0.011,-1.589,-0.013,-0.751,0.293,0.032,2.682,2,46.37,1.71,1,97.7,100,3,0,1,1,40.535732,-3.469857,11.674,97.7,0
279.83,97.6,40.538303,-3.471071,667.3,4,5,345.6,0.352,1,-0.002,-0.02,0.007,-0.01,0.001,-0.004,-1.561,-0.013,-0.736,0.242,0.052,2.686,2,51.29,1.89,1,97.6,100,3,0,1,1,40.535732,-3.469857,11.674,97.7,0
280.81,97.1,40.538536,-3.471148,667.1,4,5,345.9,0.352,1,-0.031,-0.009,0.036,-0.03,0.005,0.032,-1.567,-0.001,-0.719,0.252,0.043,2.629,2,50.84,1.89,1,97.1,90,1,0,2,1,40.538303,-3.471071,1.314,97.1,0
281.8,97.2,40.538769,-3.471225,667.5,4,5,345.9,0.352,1,-0.026,-0.001,0.023,-0.017,-0.011,0.018,-1.57,-0.002,-0.701,0.272,0.056,2.638,2,45,1.67,1,97.2,90,1,0,2,1,40.538303,-3.471071,1.314,97.1,0
282.86,97.8,40.539009,-3.471298,668.2,4,5,345.6,0.352,1,0.009,0.025,-0.015,0.024,0.022,-0.016,-1.568,0.003,-0.686,0.273,0.07,2.635,2,42.58,1.57,1,97.8,90,1,0,2,1,40.538303,-3.471071,1.314,97.1,0
283.81,98.5,40.539246,-3.471377,668.7,4,5,345.9,0.352,1,-0.047,0.009,-0.046,-0.019,0.008,-0.036,-1.559,0.014,-0.671,0.303,0.042,2.688,2,47.82,1.75,1,98.5,90,1,0,2,1,40.538303,-3.471071,1.314,97.1,0
284.81,99.6,40.539482,-3.471456,669.2,4,5,345.9,0.352,1,-0.053,0.031,0.013,-0.048,0.016,0.019,-1.561,0.007,-0.657,0.302,0.051,2.655,2,46.17,1.67,1,99.6,90,1,0,2,1,40.538303,-3.471071,1.314,97.1,0
285.8,96.6,40.539719,-3.471522,669.4,4,5,345.9,0,1,-0.043,-0.001,0.037,-0.021,0.009,0.026,-1.58,0.005,-0.642,0.303,0.057,2.592,2,41.74,1.56,1,96.6,90,1,0,2,1,40.538769,-3.471225,7.927,97.2,0
286.8,97.5,40.539948,-3.471581,669.5,4,5,345.9,0,1,0.022,0.007,-0.022,-0.007,0.001,-0.006,-1.579,0.007,-0.63,0.294,0.051,2.617,2,41.52,1.53,1,97.5,90,1,0,2,1,40.538769,-3.471225,7.927,97.2,0
287.86,98,40.540169,-3.471651,669.7,4,5,345.2,0.703,1,0.013,0.001,-0.011,0.001,0.008,-0.005,-1.568,0.02,-0.618,0.253,0.036,2.623,2,40.31,1.48,1,98,90,1,0,2,1,40.538769,-3.471225,7.927,97.2,0
288.82,97.2,40.540401,-3.471732,670.2,4,5,345.6,0.352,1,-0.006,0.027,0.01,-0.02,0.004,0.012,-1.569,0.003,-0.611,0.182,0.042,2.638,2,42.14,1.56,1,97.2,90,1,0,2,1,40.538769,-3.471225,7.927,97.2,0
289.83,96.6,40.540638,-3.471795,670.6,4,5,345.6,0.352,1,-0.03,-0.003,-0.003,-0.034,0.001,0.005,-1.583,0.001,-0.605,0.182,0.051,2.7,2,40.46,1.51,2,96.6,90,1,0,2,1,40.538769,-3.471225,7.927,97.2,0
290.83,97.6,40.540874,-3.471875,670.8,4,5,345.9,0.352,1,-0.015,-0.035,0.01,-0.038,-0.003,0.009,-1.587,0.002,-0.598,0.162,0.069,2.657,2,36.91,1.36,1,97.6,90,1,0,2,1,40.538769,-3.471225,7.927,97.2,0
291.8,98.1,40.541111,-3.471956,671.3,4,5,345.9,0.352,1,0.019,-0.007,0.021,0.016,0.005,0.014,-1.586,-0.011,-0.596,0.222,0.025,2.689,2,36.51,1.34,1,98.1,90,1,0,2,1,40.538769,-3.471225,7.927,97.2,0
292.8,98.4,40.541359,-3.472035,671.9,4,5,345.9,0,1,-0.027,0.014,-0.015,-0.011,0.012,-0.013,-1.58,0.005,-0.589,0.263,-0.018,2.717,2,35.43,1.3,1,98.4,30,1,0,1,1,40.540638,-3.471795,4.839,98.4,0
293.87,98.4,40.541595,-3.472117,672,4,5,345.9,0,1,-0.035,0.021,-0.025,-0.015,0.007,-0.018,-1.564,-0.001,-0.587,0.242,-0.004,2.745,2,36.21,1.33,1,98.4,30,1,0,1,1,40.540638,-3.471795,4.839,98.4,0
294.81,98.3,40.54184,-3.472199,672.3,4,5,345.6,0.352,1,0.054,0.045,-0.023,0.04,0.025,-0.014,-1.547,-0.01,-0.586,0.313,0.015,2.718,2,33.12,1.21,1,98.3,30,1,0,1,1,40.540638,-3.471795,4.839,98.4,0
295.81,97.3,40.542076,-3.47228,672.4,4,5,345.6,0.352,1,0.002,0.002,0.023,-0.008,-0.007,0.029,-1.566,-0.007,-0.58,0.374,-0.019,2.686,2,32.55,1.2,1,97.3,30,1,0,1,1,40.54184,-3.472199,1.146,97.3,0
296.85,95.9,40.542309,-3.472355,673.2,4,5,345.6,0,1,0.09,0.046,0,0.046,0.012,0.002,-1.569,0.002,-0.575,0.384,-0.027,2.662,2,31.38,1.18,1,95.9,30,1,0,1,1,40.542309,-3.472355,0.679,95.9,0
297.81,95.4,40.542549,-3.472439,673.9,4,5,345.6,0,1,0.107,0.022,0.009,0.05,0.023,0.018,-1.569,0.009,-0.572,0.201,0.081,2.887,1,30.44,1.15,1,95.4,30,1,0,1,1,40.542309,-3.472355,0.679,95.9,0
298.81,95.9,40.542786,-3.472511,674.7,4,5,345.6,0,1,-0.03,-0.001,0.031,-0.005,0.003,0.027,-1.599,0.009,-0.572,0,0.059,3.033,2,28.89,1.08,1,95.9,30,1,0,1,1,40.542309,-3.472355,0.679,95.9,0
299.81,96.4,40.543015,-3.47259,675.2,4,5,345.9,0.352,1,0,0.048,-0.01,0.009,0.015,0.003,-1.605,0.011,-0.569,0.211,0.06,2.703,2,28.44,1.06,1,96.4,30,1,0,1,1,40.542309,-3.472355,0.679,95.9,0
300.85,97,40.543243,-3.472661,676,6,5,345.6,0.352,1,-0.032,0.005,-0.011,-0.029,0.007,-0.01,-1.6,-0.007,-0.571,0.253,0.048,2.632,2,28.72,1.07,1,97,30,1,0,1,1,40.542309,-3.472355,0.679,95.9,0
301.81,97.5,40.543476,-3.472736,677.2,4,5,345.6,0.352,1,0.03,-0.008,-0.061,0.037,-0.004,-0.065,-1.579,-0.002,-0.571,0.293,0.046,2.64,2,27.34,1.01,1,97.5,30,1,0,1,1,40.542309,-3.472355,0.679,95.9,0
302.81,97.8,40.543716,-3.47282,677.8,6,5,345.9,0.352,1,-0.043,0.008,-0.016,-0.039,0.013,-0.013,-1.563,0.017,-0.569,0.293,0.056,2.701,2,29.38,1.08,1,97.8,30,1,0,1,1,40.542309,-3.472355,0.679,95.9,0
303.81,95.7,40.543938,-3.472894,678.7,6,5,345.9,0.352,1,0.006,0.003,0.002,0.004,-0.019,0.009,-1.562,0.005,-0.566,0.283,0.036,2.656,2,27.1,1.02,1,95.7,30,1,0,1,1,40.542549,-3.472439,11.768,89.7,0
304.82,94.5,40.544178,-3.472975,679.6,6,5,345.6,0.352,1,0.006,0.043,0,-0.005,0.019,0.006,-1.57,0.007,-0.565,0.232,0.034,2.611,2,24.76,0.94,1,94.5,30,1,0,1,1,40.542549,-3.472439,11.768,89.7,0
305.81,93.9,40.544403,-3.473057,680,6,5,345.2,0.703,1,0.002,-0.04,-0.01,-0.01,-0.026,-0.008,-1.563,-0.013,-0.568,0.212,0.054,2.652,2,23.75,0.91,1,93.9,30,1,0,1,1,40.542549,-3.472439,11.768,89.7,0
306.82,94.1,40.544628,-3.473127,680.7,6,5,345.9,0.703,1,0.02,-0.001,0.001,0.001,-0.018,-0.009,-1.553,-0.027,-0.569,0.252,0.042,2.671,2,24.49,0.94,1,94.1,30,1,0,1,1,40.542549,-3.472439,11.768,89.7,0
307.93,89.7,40.545074,-3.473273,681.4,6,5,345.6,0.703,1,-0.013,-0.03,-0.003,-0.001,-0.032,-0.002,-1.545,-0.022,-0.562,0.263,0.037,2.648,2,23.77,0.93,1,92.1,30,1,0,1,1,40.542549,-3.472439,11.768,89.7,0
308.81,89.7,40.545074,-3.473273,681.4,6,5,345.6,0.352,1,-0.031,0.014,-0.001,-0.014,0.004,0.003,-1.545,-0.032,-0.562,0.162,0.024,2.68,2,23.99,0.96,1,89.7,30,1,0,1,1,40.542549,-3.472439,11.768,89.7,0
309.82,88.7,40.545292,-3.473344,682.5,6,5,345.6,0.352,1,-0.017,-0.01,0.007,-0.014,-0.02,0.007,-1.549,-0.05,-0.563,0.111,0.033,2.722,2,24,0.97,1,88.7,30,1,0,1,1,40.542549,-3.472439,11.768,89.7,0
310.82,88,40.545506,-3.47342,683.1,6,5,345.9,0.352,1,0.041,-0.026,0.001,0.013,-0.025,-0.002,-1.559,-0.045,-0.567,0.141,0.058,2.765,2,25.68,1.05,1,88,90,1,0,2,1,40.545292,-3.473344,1.104,88,0
311.82,86,40.545715,-3.47349,684,6,5,345.9,0.352,1,-0.067,-0.033,0.026,-0.051,-0.025,0.02,-1.565,-0.042,-0.564,0.212,0.052,2.747,2,27.02,1.13,1,86,90,1,0,2,1,40.545715,-3.47349,0.736,86,0
312.85,85.8,40.545925,-3.473557,684.5,6,5,345.6,0.352,1,0,-0.025,0.045,-0.035,-0.018,0.028,-1.571,-0.024,-0.556,0.272,0.034,2.764,2,28.68,1.2,1,85.8,90,1,0,2,1,40.545715,-3.47349,0.736,86,0
313.82,85,40.546135,-3.473622,685.4,6,5,345.6,0.352,1,-0.004,-0.003,0.035,0.004,-0.015,0.035,-1.584,-0.019,-0.544,0.242,0.042,2.681,2,28.82,1.22,1,85,90,1,0,2,1,40.545715,-3.47349,0.736,86,0
314.83,85.7,40.546337,-3.4737,685.9,6,5,344.5,1.055,1,-0.051,0.006,0.016,-0.027,0.013,0.021,-1.606,-0.021,-0.533,0.131,0.057,2.697,2,30.43,1.28,1,85.7,90,1,0,2,1,40.545715,-3.47349,0.736,86,0
315.82,86.8,40.546535,-3.47378,686.7,6,5,343.5,2.109,1,0.005,0.021,0.025,-0.009,0.009,0.025,-1.608,-0.039,-0.534,0.152,0.057,2.69,2,31.61,1.31,1,86.8,90,1,0,2,1,40.545925,-3.473557,4.872,87.7,0
316.85,87.7,40.546757,-3.473872,687.8,6,5,343.5,1.055,1,0.023,-0.005,0.021,-0.002,-0.006,0.022,-1.621,-0.027,-0.523,0.202,0.064,2.682,2,31.02,1.27,1,87.7,90,1,0,2,1,40.545925,-3.473557,4.872,87.7,0
317.82,88.6,40.546982,-3.473963,688.9,6,5,342.8,0.703,1,-0.022,-0.005,0.018,-0.018,-0.008,0.017,-1.631,-0.015,-0.503,0.142,0.048,2.698,2,32.33,1.31,2,88.6,90,1,0,2,1,40.545925,-3.473557,4.872,87.7,0
318.87,89.7,40.547195,-3.474059,689.5,6,5,342.1,1.406,1,-0.003,0.023,-0.013,-0.03,0.01,-0.011,-1.637,-0.03,-0.492,0.03,0.06,2.711,2,32.1,1.29,2,89.7,90,1,0,2,1,40.546982,-3.473963,1.696,89.7,0
